fuel_type_code,station_name,city,state,status_code,latitude,longitude,groups_with_access_code,index
LPG,Irish Propane,Buffalo,NY,E,42.8594,-78.858933,Public,0
ELEC,Latitudes,Rio Rancho,NM,E,35.21843,-106.663,Public,1
ELEC,American Bush - Solar Canopy,Salt Lake City,UT,E,40.714419899999996,-111.90010500000001,Public,2
ELEC,McDonald's #31850 - Flower Mound TX,Flower Mound,TX,E,33.071809,-97.08511899999999,Public,3
ELEC,CITY OF SEATTLE,Seattle,WA,E,47.6125141,-122.3354092,Public,4
ELEC,Two Embarcadero Center,San Franciso,CA,E,37.79502720000001,-122.39850030000001,Public - Card key at all times,5
ELEC,PARKWAY,Philadelphia,PA,E,39.9528732,-75.1528625,Public,6
ELEC,General Electric - Dallas Office,Carrollton,TX,E,32.9838,-96.84531700000001,Private,7
ELEC,Municipal Lot,Snoqualmie,WA,E,47.527427,-121.823532,Public,8
LPG,U-Haul,Brook Park,OH,E,41.418059,-81.802714,Public,9
ELEC,GATEWAY TECH B,Burlington,WI,E,42.672790500000005,-88.2556,Public,10
ELEC,NATIONAL GRID,Providence,RI,E,41.8096008,-71.40885290000001,Public,11
ELEC,San Francisco General Hospital Garage,San Francisco,CA,E,37.753135,-122.404374,Public,12
ELEC,Amazon - Obidos/Rufus,Seattle,WA,E,47.62395,-122.337078,Public,13
ELEC,Classic Cars Nissan,Hainesport,NJ,E,39.98225,-74.808612,Private,14
LPG,U-Haul,Memphis,TN,E,35.199728,-90.007121,Public,15
ELEC,"Walgreens - Clinton, UT #2519",Clinton,UT,E,41.139868799999995,-112.0632572,Public - Card key at all times,16
E85,Speedway #3428,Hamilton,OH,E,39.40818170000001,-84.50665790000001,Public,17
ELEC,MERCER ISLAND,Mercer Island,WA,E,47.5900154,-122.22854609999999,Public,18
ELEC,NATIONAL GRID,Cohoes,NY,E,42.770945000000005,-73.753012,Public,19
BD,East Side Travel Plaza,East Grand Forks,MN,E,47.9375198,-97.01454840000001,Public,20
ELEC,AUTO CLUB GROUP,Winter Park,FL,E,28.5909042,-81.3660965,Public,21
CNG,Greater Richmond Transit Co,Richmond,VA,E,37.50673099999999,-77.47908000000001,Private,22
ELEC,Ehrlich Nissan,Greeley,CO,E,40.3944828,-104.736046,Public - Call ahead,23
ELEC,Outpost Solar - Mines Road,Pulaski,TN,E,35.210144,-87.054365,Private,24
CNG,SDG&E - Northern (Carlsbad),Carlsbad,CA,E,33.1336848,-117.33212320000001,Public - Credit card at all times,25
ELEC,CITYZEPHYRHILLS,Zephyrhills,FL,E,28.2352886,-82.1812439,Public,26
ELEC,Atlantic Nissan,West Islip,NY,E,40.720647,-73.304128,Private,27
LPG,U-Haul,Williamsport,PA,E,41.242703000000006,-76.998402,Public - Call ahead,28
ELEC,Dan Wilder Nissan,Port Angeles,WA,E,48.102884,-123.342597,Private,29
LPG,Sierra Propane,Springerville,AZ,E,34.1328336,-109.28092649999999,Public,30
ELEC,Port of San Diego-Imperial Beach Parking Lot,Imperial Beach,CA,E,32.5839,-117.13171799999999,Public,31
E85,Western Convenience Store,Denver,CO,E,39.82763679999999,-105.0152257,Public,32
E85,Kroger #587,Dallas,TX,E,32.99823189999999,-96.84608730000001,Public - Credit card after hours,33
ELEC,Kroger Store #518,Dallas,TX,E,32.837337,-96.77053599999999,Public,34
E85,Marathon - Smart Shop,Lafayette,IN,E,40.420134000000004,-86.857658,Public,35
E85,Mobil On the Run,Rolla,MO,E,37.9583377,-91.7728715,Public,36
ELEC,15 LLC,Atlanta,GA,E,33.852522,-84.380658,Public,37
ELEC,Wayne State University - Parking Structure #4,Detroit,MI,E,42.3559279,-83.05520600000001,Public,38
ELEC,Waikiki Sand Villa,Honolulu,HI,E,21.278842,-157.823158,Public,39
E85,Holbrook T & C Citgo,Holbrook,NY,E,40.768313899999995,-73.071263,Public,40
ELEC,LUNDS FOODS,Edina,MN,E,44.872598499999995,-93.32789190000001,Public,41
LPG,Flying J,Ehrenberg,AZ,E,33.60168,-114.523067,Public,42
E85,Watonwan Farmers Service Co,Blue Earth,MN,E,43.630415,-94.0935814,Public - Credit card at all times,43
E85,Thorntons #307,Wood Dale,IL,E,41.992429,-87.980958,Public,44
ELEC,Loyola University - New Orleans,New Orleans,LA,E,29.937189899999996,-90.1268944,Private,45
CNG,Con Edison - College Point Service Center,Queens,NY,E,40.7678,-73.845925,Public - Card key at all times,46
ELEC,RENAISSANCE TWR,Dallas,TX,E,32.7819816,-96.8019686,Public,47
ELEC,Piolax,Canton,GA,E,34.2455859,-84.471847,Public,48
ELEC,Court Street Ford,Bourbonnais,IL,T,41.161794,-87.885165,TEMPORARILY UNAVAILABLE (Public),49
BD,Piedmont Biofuels - Carrboro Public Works,Carrboro,NC,E,35.939414,-79.05699399999999,Public - Card key after hours,50
CNG,Xcel Energy,Fort Collins,CO,E,40.536651,-105.042277,Private,51
ELEC,Roush - Naples,Naples,FL,E,26.15823,-81.674971,Public - Card key at all times,52
LPG,U-Haul,Danbury,CT,E,41.391202,-73.45841800000001,Public,53
ELEC,Brown & Howell LLC Sunbrite Corner,Phoenix,AZ,E,33.523943100000004,-112.04788980000001,Public,54
ELEC,KCP&L,Lee's Summit,MO,E,38.9190971,-94.3606061,Public,55
ELEC,Ken Ganley Nissan,Medina,OH,E,41.134257,-81.793779,Private,56
ELEC,KIRKLAND,Kirkland,WA,E,47.6757469,-122.20297240000002,Public,57
LPG,Blossman Gas Inc,Waynesboro,MS,E,31.663926399999998,-88.6283224,Public - Call ahead,58
LPG,Ferrellgas,Sand Springs,OK,E,36.133604600000005,-96.11798909999999,Public,59
ELEC,Honda Motorwerks,LaCrosse,WI,E,43.808262,-91.252255,Public,60
LPG,Ron's Car Care & Propane Services,Miamisburg,OH,E,39.6403804,-84.2657791,Public,61
ELEC,AMERICAN UNIV,Washington,DC,E,38.9392128,-77.0867615,Public,62
ELEC,SCANSOURCE,Greenville,SC,E,34.8554115,-82.24766540000002,Public,63
E85,Holiday Stationstore #3558,Almena,WI,E,45.4096385,-92.0345747,Public - Credit card after hours,64
E85,Meijer Gas #253,East Lansing,MI,E,42.7704045,-84.41940149999998,Public,65
ELEC,NRG eVgo - Whole Foods Market,Chicago,IL,E,41.908643,-87.653248,Public - Card key at all times,66
E85,Kroger Fuel Center #355,Cincinnati,OH,E,39.14720629999999,-84.427089,Public - Credit card after hours,67
E85,Suzy-Q's Fast Stop,Golden,IL,E,40.108233,-91.02834399999999,Public,68
LPG,AmeriGas,Hawthorne,NV,E,38.5244559,-118.61697749999999,Public - Call ahead,69
ELEC,Round Rock Nissan,Round Rock,TX,E,30.54205,-97.69265,Public - Call ahead,70
ELEC,Grapevine Recreational Area,Grapevine,TX,E,32.979103,-97.054467,Public,71
E85,Kwik Trip #662,Eagan,MN,E,44.84365589999999,-93.1234825,Public,72
ELEC,Roberts Motors,Alton,IL,E,38.9217295,-90.17955970000001,Public,73
CNG,AMP Americas,Waco,TX,E,31.50088349999999,-97.1734173,Public - Credit card at all times,74
BD,Propel Fuels - 76,Ontario,CA,E,34.063173299999995,-117.6113105,Public - Credit card at all times,75
ELEC,Lafontaine Nissan,Highland,MI,E,42.652932,-83.580487,Public - Call ahead,76
CNG,Waste Management - Gaithersburg Hauling,Gaithersburg,MD,P,39.165982,-77.16516899999998,PLANNED - not yet accessible (Private - Fleet customers only),77
LPG,Ferrellgas,Norfolk,NE,E,42.061654299999994,-97.42695079999999,Public - Call ahead,78
ELEC,San Joaquin Valley Air Pollution Control District,Fresno,CA,E,36.801411,-119.7881,Public,79
ELEC,Nemet Motors,Jamaica,NY,E,40.70751679999999,-73.8045108,Private,80
ELEC,Mesa Main Library,Mesa,AZ,E,33.417273,-111.83048400000001,Public,81
ELEC,Napleton Nissan,Schererville,IN,E,41.4976735,-87.47097120000001,Private,82
ELEC,Nissan of Oakland,Oakland,CA,E,37.820419,-122.261344,Private,83
ELEC,UMKC,Kansas City,MO,E,39.035998,-94.581594,Public,84
ELEC,Umstead Hotel and Spa,Cary,NC,E,35.82973,-78.7646,Public,85
ELEC,Nissan of Bergenfield,Bergenfield,NJ,E,40.917268299999996,-73.99720529999999,Private,86
ELEC,Peruzzi Nissan,Fairless Hills,PA,E,40.181931,-74.863403,Public - Call ahead,87
E85,Meijer Gas #167,Jeffersonville,IN,E,38.322866999999995,-85.70947699999998,Public,88
ELEC,Westar Energy - Lawrence Energy Center,Lawrence,KS,E,39.006794899999996,-95.269499,Private,89
CNG,Con Edison - Eastview Service Center,Valhalla,NY,E,41.08338699999999,-73.82378790000001,Public - Card key at all times,90
ELEC,Serramonte Nissan,Colma,CA,E,37.675806,-122.46127299999999,Private,91
LPG,Triple B Home Center,Sullivan,IL,E,39.5857114,-88.6091442,Public - Call ahead,92
CNG,Domino Express #9,Elk City,OK,E,35.4117249,-99.419721,Public,93
ELEC,The Mill Casino,North Bend,OR,E,43.394667600000005,-124.21955439999999,Public,94
LPG,U-Haul,Lake Charles,LA,E,30.2250294,-93.1800662,Public,95
ELEC,Coggin Nissan at the Avenues,Jacksonville,FL,E,30.1725503,-81.5452976,Private,96
LPG,Heritage Propane,Walland,TN,E,35.747741600000005,-83.8371242,Public - Call ahead,97
CNG,AT&T,Gardena,CA,E,33.884744299999994,-118.2765203,Private,98
ELEC,NATIONAL GRID,Providence,RI,E,41.819064000000004,-71.408276,Public,99
E85,Vandenberg Air Force Base,Santa Barbara,CA,E,34.7232998,-120.5356382,Private - Government only,100
CNG,Encana - Plano,Plano,TX,E,33.0806397,-96.82270150000001,Private,101
ELEC,CITYOFSANTAROSA,Santa Rosa,CA,E,38.439413200000004,-122.7112405,Public,102
ELEC,Spartanburg Municipal Parking Garage,Spartanburg,SC,E,34.9520415,-81.9315933,Public,103
E85,Speedway #1810,Holland,MI,E,42.81257670000001,-86.0784455,Public,104
E85,Elgin One Stop,Elgin,NE,E,41.987483600000004,-98.0846214,Public - Credit card after hours,105
ELEC,Chatsworth Metrolink Station,Chatsworth,CA,T,34.253386799999994,-118.5988554,TEMPORARILY UNAVAILABLE (Public),106
ELEC,Embassy Suites Frisco Hotel & Convention Center --- South Parking Lot,Frisco,TX,E,33.099784,-96.81732,Public,107
ELEC,CARCHARGING,New York,NY,E,40.75147,-73.9927795,Public,108
ELEC,EV CHARGER,Las Vegas,NV,E,36.1147871,-115.17339790000001,Public,109
BD,Forest Service - Cleveland National Forest,Santa Ysabel,CA,E,33.212382,-116.71063899999999,Private,110
BD,City of Phoenix - Fire Station #59,Phoenix,AZ,E,33.4379359,-112.1982409,Private,111
ELEC,Tahoma Market (I-5 Exit 137),Fife,WA,E,47.24198,-122.348098,Public,112
ELEC,Town of Basalt - Midland Spur,Basalt,CO,E,39.36902,-107.03572,Public,113
CNG,NGV Solutions LLC,Flowood,MS,E,32.350721,-90.030272,Private,114
ELEC,OUC,Orlando,FL,E,28.544092,-81.380449,Public,115
E85,Kroger Fuel Center #844,Circleville,OH,E,39.59798079999999,-82.9312028,Public,116
E85,SuperAmerica #4340,White Bear Lake,MN,E,45.0388302,-93.018445,Public,117
ELEC,MBTA,Braintree,MA,E,42.205989,-71.000792,Public,118
ELEC,Inn At The Market,Seattle,WA,E,47.6098122,-122.34130159999998,Public,119
ELEC,Hilton La Jolla Torrey Pines,La Jolla,CA,E,32.9015358,-117.24377140000001,Private,120
E85,Kum & Go #240,Norwalk,IA,E,41.475004799999994,-93.681881,Public,121
ELEC,Benton Nissan,Oxford,AL,E,33.6148266,-85.79992309999999,Private,122
ELEC,Concordville Nissan,Glen Mills,PA,E,39.86583710000001,-75.5442656,Private,123
BD,National Grid - Westborough,Westborough,MA,E,42.287238200000004,-71.5770683,Private,124
HY,US Marine Corps - Kaneohe Marine Base,Kaneohe Bay,HI,E,21.44651,-157.76176999999998,Private - Government only,125
ELEC,FREEDOM NISSAN,South Burlington,VT,E,44.4388342,-73.21090579999999,Public,126
E85,Speedway #5491,Riverview,MI,E,42.170846999999995,-83.188294,Public,127
ELEC,El Dorado County Government Center,Placerville,CA,E,38.727990000000005,-120.82799999999999,Public,128
LPG,Martin LP Gas,Longview,TX,E,32.5804954,-94.81231600000001,Public,129
ELEC,Crowley Nissan,Bristol,CT,E,41.6992932,-72.8956037,Public - Call ahead,130
LPG,AmeriGas,New Albin,IA,E,43.495994700000004,-91.2917817,Public - Call ahead,131
LPG,Ferrellgas - Andrews Shell,Glendale,AZ,E,33.552254,-112.254324,Public - Card key at all times,132
E85,United Western Co-op,Woodbine,IA,E,41.727864000000004,-95.702833,Public - Credit card at all times,133
ELEC,UM PTS,Baltimore,MD,E,39.286313799999995,-76.6251238,Public,134
LPG,U-Haul,Parkersburg,WV,E,39.243167,-81.552325,Public,135
ELEC,Panera Bread - Tesla,Saint Joseph,MI,E,42.056717,-86.456695,Public,136
E85,Kwik Trip #485,Elkhorn,WI,E,42.694575,-88.54249,Public,137
LPG,Herring Gas Co,Laurel,MS,E,31.6870189,-89.1386445,Public - Call ahead,138
LNG,Burrtec Waste,Fontana,CA,E,34.074205799999994,-117.4894155,Private,139
BD,DC Department of Public Works - MPD 3rd District,Washington,DC,E,38.917766,-77.03772599999998,Private - Government only,140
E85,Clark,Jacksonville,IL,E,39.692328499999995,-90.2288168,Public,141
LPG,Penman Conoco Service,Knox City,TX,E,33.4180937,-99.8129655,Public,142
ELEC,WEST GERMAN BMW,Fort Washington,PA,E,40.134012,-75.2074839,Public,143
LNG,Clean Energy - Express Fuels,Jacksonville,FL,E,30.3243386,-81.7518892,Public - Credit card at all times,144
ELEC,Pearson Ford,Zionsville,IN,E,39.9416571,-86.2372927,Public,145
ELEC,ABBERLYCROSSING,Ladson,SC,E,32.9555017,-80.11664990000001,Public,146
ELEC,Los Angeles County - Olive View UCLA Medical Center,Sylmar,CA,E,34.325708399999996,-118.44577609999999,Public,147
LPG,Port Washington Street Department,Port Washington,WI,E,43.3875661,-87.879509,Private,148
E85,Qik-n-EZ #62,Bloomington,IL,E,40.4584568,-88.9707084,Public,149
ELEC,"Walgreens - Lutherville, MD #12847",Lutherville,MD,E,39.430637700000005,-76.6208506,Public - Card key at all times,150
ELEC,Kroger Store #308,Pearland,TX,E,29.583886,-95.387923,Public,151
ELEC,"CFP II, LLC",Chicago,IL,E,41.8911375,-87.6209561,Public,152
E85,Beaufort Marine Corps Air Station,Beaufort,SC,E,32.461238,-80.710684,Private,153
CNG,New York State Department of Transportation,Horseheads,NY,E,42.157555,-76.829942,Private - Government only,154
E85,Pawnee Corner - Shell - Sunshine Energy,Wichita,KS,E,37.649569,-97.318971,Public,155
ELEC,Lynchburg Nissan,Forest,VA,E,37.386097,-79.244054,Public - Call ahead,156
LPG,INDOT - 71st Street Maintenance Unit,Indianapolis,IN,E,39.882517,-86.294341,Private,157
ELEC,Waikiki Beach Marriott,Honolulu,HI,E,21.2731229,-157.822788,Public,158
ELEC,Pittsburgh Zoo,Pittsburgh,PA,E,40.484469,-79.922492,Public,159
LPG,O'Neal Gas,Plain Dealing,LA,E,32.912526799999995,-93.7047267,Public,160
CNG,Clean Energy - Fontana Truck Stop,Fontana,CA,E,34.070181,-117.49394620000001,Public - Credit card at all times,161
ELEC,CELEBRATION,Okemos,MI,E,42.727346000000004,-84.421766,Public,162
ELEC,Woodland Gateway Shopping Center,Woodland,CA,E,38.668735999999996,-121.7287,Public,163
ELEC,NATIONAL GRID,Albany,NY,E,42.6883686,-73.82306659999999,Public,164
ELEC,WHOLE FOODS MKT,San Francisco,CA,E,37.723830799999995,-122.45478119999999,Public,165
ELEC,Loring Ramp,Minneapolis,MN,E,44.969832399999994,-93.27782490000001,Public,166
E85,Cenex - Ampride C-Store,Ainsworth,NE,E,42.549879600000004,-99.8580685,Public - Credit card after hours,167
E85,Stop In Food Stores #67,Charlottesville,VA,E,38.07018370000001,-78.48529620000001,Public,168
ELEC,NRG eVgo - Walgreens Freedom Station,Hudson Oaks,TX,E,32.757740000000005,-97.71054000000001,Public - Card key at all times,169
E85,FSC Mart - Godfather's,Corning,IA,E,40.9880799,-94.7332596,Public - Credit card after hours,170
ELEC,Lodi Animals Service and Shelter,Lodi,CA,E,38.115533899999996,-121.28893810000001,Public,171
BD,Daily's #7111,Nashville,TN,E,36.045435,-86.6613932,Public,172
ELEC,Suntek Business Center - NPM,Portland,OR,E,45.508691999999996,-122.774947,Public,173
LPG,U-Haul,Janesville,WI,E,42.691925399999995,-88.99951479999999,Public,174
ELEC,Fairview Town Hall,Fairview,TX,E,33.13232,-96.64707,Public,175
ELEC,Wright Automotive Group,Wexford,PA,E,40.610479,-80.05303599999999,Public - Call ahead,176
ELEC,Bert Ogden Nissan,McAllen,TX,E,26.206789399999998,-98.203314,Public - Call ahead,177
E85,Pennsylvania Turnpike North Somerset Service Plaza - Sonoco,Somerset,PA,E,40.00178,-79.046458,Public,178
ELEC,Maroone Nissan of Pembroke Pines,Pembroke Pines,FL,E,26.007358,-80.263072,Private,179
ELEC,Staunton Nissan,Staunton,VA,E,38.1185725,-79.0687636,Private,180
ELEC,City of Raleigh - Police Fleet Station,Raleigh,NC,E,35.872238,-78.641278,Private,181
CNG,GreenTeam - San Jose CA,San Jose,CA,E,37.3685305,-121.89305060000001,Private - Fleet customers only,182
E85,Meijer Gas #137,Lafayette,IN,E,40.415445,-86.81237899999998,Public,183
LPG,U-Haul,Cincinnati,OH,E,39.178939,-84.545326,Public,184
E85,BP,Warren,MI,E,42.476809,-83.045964,Public,185
E85,Kum & Go #155,Maumelle,AR,E,34.883715,-92.392391,Public,186
ELEC,Camden County Regional Library - Bellmawr Branch,Bellmawr,NJ,E,39.8665027,-75.0775904,Public,187
ELEC,ACUA - Wastewater: 1801 Absecon Blvd (Route 30),Atlantic City,NJ,E,39.382109,-74.449067,Public,188
ELEC,FARMERS BANK,Minden,NV,E,38.9536037,-119.76351170000001,Public,189
ELEC,CSU FULLERTON,Fullerton,CA,E,33.87945870000001,-117.883179,Public,190
ELEC,GEBHARDT BMW,Boulder,CO,E,40.0285291,-105.2426392,Public,191
ELEC,Port City Nissan,Portsmouth,NH,E,43.0772236,-70.7851839,Private,192
ELEC,Duke Energy Progress  - Asheville,Asheville,NC,E,35.55555,-82.601481,Private,193
ELEC,KCP&L,Kansas City,MO,E,39.268135,-94.4486662,Public,194
LPG,BCI Propane LLC,Hugoton,KS,E,37.1699311,-101.3367357,Public,195
ELEC,Ameren Missouri,St. Louis,MO,E,38.622710999999995,-90.209564,Private,196
ELEC,UCR,Riverside,CA,E,33.97009310000001,-117.3271078,Public,197
ELEC,Hilton Garden Inn Midtown,Atlanta,GA,E,33.7819521,-84.39030890000001,Public,198
LPG,Sunoco - Circle A Mart #111,Jasper,IN,E,38.364496,-86.9410089,Public,199
CNG,Apache Woodward,Woodward,OK,E,36.405933700000006,-99.3717023,Private - Fleet customers only,200
ELEC,Pacific View Mall,Ventura,CA,E,34.268,-119.2492,Public,201
ELEC,MGE,Madison,WI,E,43.0660286,-89.4151993,Public,202
LPG,Veolia Environmental Services - Baltimore,Baltimore,MD,E,39.313074,-76.620506,Private,203
ELEC,STATION 1 PARK,Salt Lake City,UT,E,40.7641172,-111.89609180000001,Public,204
ELEC,Garland Animal Control,Garland,TX,E,32.906459600000005,-96.60372029999999,Private,205
ELEC,HY-VEE,Lawrence,KS,E,38.9419594,-95.2893448,Public,206
ELEC,Kleiver Armory,Portland,OR,E,45.594995000000004,-122.63519699999999,Public,207
E85,Agriland Fast Stop Express,Knoxville,IA,E,41.327683799999996,-93.1094706,Public - Credit card at all times,208
ELEC,"Walgreens - Bel Air, MD #12748",Bel Air,MD,E,39.5416769,-76.33007679999999,Public - Card key at all times,209
E85,Meijer Gas #112,Troy,OH,E,40.0546879,-84.243048,Public,210
BD,Georgia Power,Valdosta,GA,E,32.368381199999995,-84.9568462,Private,211
LPG,L&W Landscape,Latham,NY,E,42.739613,-73.736467,Public - Call ahead,212
ELEC,BEAM CHARGING,Manhattan,NY,E,40.7778702,-73.95719150000001,Public,213
LPG,Suburban Propane,Enon,OH,E,39.883349,-83.93726590000001,Public - Call ahead,214
E85,Flying J,Rapid City,SD,E,44.1037439,-103.1503175,Public,215
LNG,Blu LNG - Maverick Travel Plaza,West Haven,UT,E,41.22028299999999,-112.027794,Public - Credit card at all times,216
CNG,Trillium - Shell Gas Station,Atlanta,GA,P,33.761355,-84.53591899999998,PLANNED - not yet accessible (Public - Credit card at all times),217
ELEC,City of Palm Springs - Convention Center,Palm Springs,CA,E,33.826218100000006,-116.5380375,Public,218
ELEC,Mainline Station Parking,Sisters,OR,E,44.297646,-121.562372,Public,219
ELEC,Black Mountain Public Safety Building,Black Mountain,NC,E,35.61921800000001,-82.320192,Public,220
ELEC,CNTYOFRIVERSIDE,Riverside,CA,E,33.9775658,-117.37515400000001,Public,221
ELEC,Destin Commons Mall,Destin,FL,E,30.390204999999998,-86.426185,Public,222
E85,Thorntons #64,Clarksville,IN,E,38.320919,-85.751467,Public,223
LPG,Jaysan Gas Service Inc,East Freetown,MA,E,41.757214700000006,-70.9468373,Public - Call ahead,224
E85,Holiday Stationstore #317,Plymouth,MN,E,45.0093633,-93.4490777,Public - Credit card after hours,225
ELEC,Naples Nissan,Naples,FL,E,26.2100255,-81.74412059999999,Public - Call ahead,226
LPG,Flying J,Brunswick,GA,E,34.066103399999996,-84.6775668,Public,227
BD,Carl's Junior 76 Station,Honolulu,HI,E,21.328201800000002,-157.8858304,Public,228
E85,Kum & Go #880,Lone Chimney,OK,E,36.224779999999996,-96.79679200000001,Public,229
CNG,Trillium CNG,Tulare,CA,E,36.183105,-119.33040600000001,Public - Credit card at all times,230
CNG,Clean Energy - Peoria Disposal,West Peoria,IL,E,40.7004376,-89.6438486,Public - Credit card at all times,231
ELEC,11900 NE 1st Street Building G,Bellevue,WA,E,47.611519,-122.182197,Public,232
ELEC,Temple University - Health Sciences Center,Philadelphia,PA,E,40.005165000000005,-75.1532359,Public,233
ELEC,BEAM CHARGING,Manhattan,NY,E,40.7444153,-73.9754868,Public,234
ELEC,BEVERLY HILLS,Beverly Hills,CA,E,34.0694251,-118.40446709999999,Public,235
ELEC,LHS #1,San Jose,CA,E,37.300085100000004,-122.0062201,Public,236
LPG,Suburban Propane,Harrison,OH,E,39.243408,-84.77776800000001,Public - Call ahead,237
CNG,City of Phoenix - 52nd Street Water Yard,Phoenix,AZ,E,33.480648800000004,-111.9681422,Private,238
ELEC,Point Reyes National Seashore - Bear Valley Visitor Center,Point Reyes Station,CA,E,38.040933,-122.800044,Public,239
E85,Speedway #3766,Indianapolis,IN,E,39.750608,-86.026916,Public,240
ELEC,Brickell Bay Tower,Miami,FL,E,25.763679,-80.18956899999999,Private,241
ELEC,Newport Fashion Island,Newport Beach,CA,E,33.615861200000005,-117.8711879,Public,242
E85,RB's Food Shop,Humphrey,NE,E,41.6917634,-97.48446,Public,243
ELEC,CITYOFRIVERSIDE,Riverside,CA,E,33.984508899999994,-117.3716379,Public,244
ELEC,Kohl's Store #685 Tucson,Tucson,AZ,E,32.354898999999996,-111.087796,Public,245
ELEC,Benton Co - Fairgrounds,Corvallis,OR,E,44.566857,-123.31291399999999,Public,246
ELEC,CARCHARGING,Fort Lauderdale,FL,E,26.1202393,-80.14433290000001,Public,247
E85,Chevron,Atlanta,GA,T,33.8375109,-84.31189499999998,TEMPORARILY UNAVAILABLE (Public - Credit card after hours),248
ELEC,Sokol Blosser Winery,Dundee,OR,E,45.2471771,-123.0480541,Public,249
ELEC,East Community Center,Nashville,TN,E,36.17203,-86.76222,Public,250
E85,Circle K,Monmouth,IL,E,40.9221825,-90.64802370000001,Public,251
E85,Federal Correctional Institution - Bennettsville,Bennettsville,SC,E,34.6737527,-79.724586,Private,252
ELEC,Kum & Go #206,Clive,IA,E,41.607394899999996,-93.735915,Public,253
BD,Saxapahaw General Store,Saxapahaw,NC,E,35.946531,-79.31833499999998,Public - Card key at all times,254
ELEC,Garfield Park Library,Indianapolis,IN,E,39.732171,-86.140045,Public,255
E85,Dover Air Force Base,Dover,DE,E,39.1266755,-75.47671009999999,Private - Government only,256
ELEC,Eugene - Broadway Garage South,Eugene,OR,E,44.049484,-123.095913,Public,257
ELEC,White Parking Lot,Charlevoix,MI,E,45.3170474,-85.2589168,Public - Credit card at all times,258
E85,BP,Wixom,MI,E,42.5234979,-83.53595909999999,Public,259
ELEC,COA FACILITIES,Austin,TX,E,30.399122700000003,-97.67948929999999,Public,260
ELEC,CARCHARGING,New York,NY,E,40.7375375,-74.00977850000001,Public,261
ELEC,HENNEPIN COUNTY,Minneapolis,MN,E,44.9836162,-93.2785986,Public,262
BD,Pacific Pride,Arlington,WA,E,48.1686092,-122.14598159999998,Public - Card key at all times,263
ELEC,CPSE-SATX,San Antonio,TX,E,29.417642100000002,-98.45454840000001,Public,264
LPG,Gresham Petroleum Co,Indianola,MS,E,33.4470758,-90.6454507,Public,265
ELEC,JOHNSON COUNTY,Olathe,KS,E,38.914733899999995,-94.7995987,Public,266
CNG,Waste Management - Fayetteville,Fayetteville,NC,P,34.9581975,-78.8958897,PLANNED - not yet accessible (Private),267
LNG,Clean Energy - Port Wentworth,Port Wentworth,GA,P,32.192609600000004,-81.1909431,PLANNED - not yet accessible (Public - Card key at all times),268
HY,HydrogenFuel Station,Columbia,SC,E,34.006419,-81.051715,Public - Call ahead,269
CNG,New York State Department of Transportation,Canandaigua,NY,E,42.87721699999999,-77.281959,Private - Government only,270
E85,Breaker's #127,Florence,SC,E,34.196796,-79.65469499999999,Public,271
E85,Speedway #9593,Lexington,KY,E,38.006296999999996,-84.452435,Public,272
ELEC,Cool Roof Store,Honolulu,HI,E,21.299654,-157.857132,Public - Call ahead,273
LPG,Shell,Stockton,CA,E,37.9367676,-121.2956061,Public,274
LPG,U-Haul,Lynchburg,VA,E,37.405828,-79.155661,Public,275
LPG,U-Haul,Atlanta,GA,E,33.766011999999996,-84.53062790000001,Public,276
E85,FS Fast Stop,Morrison,IL,E,41.8073718,-89.957098,Public - Credit card after hours,277
ELEC,Clayton Lane Owner's Association,Denver,CO,E,39.718799,-104.95679399999999,Public,278
E85,Holiday ,Stillwater,MN,E,45.0428359,-92.798497,Public - Credit card after hours,279
ELEC,GA TECH,Atlanta,GA,E,33.780485600000006,-84.3984458,Public,280
ELEC,Texas Nissan of Grapevine,Grapevine,TX,E,32.927706699999995,-97.094121,Private,281
LPG,AmeriGas,Wayne,WV,E,38.221475,-82.442375,Public - Call ahead,282
ELEC,City of Palm Springs - Camelot Theatre,Palm Springs,CA,E,33.819959999999995,-116.52124509999999,Public,283
ELEC,BMW-NA,Westwood,NJ,E,41.03461,-74.072866,Public,284
ELEC,Sheridan Nissan,New Castle,DE,E,39.6637925,-75.60526540000001,Public - Call ahead,285
ELEC,The Reeds at Shelter Haven,Stone Harbor,NJ,E,39.054155,-74.761398,Public,286
E85,Hull Co-op Association,Hull,IA,E,43.18577379999999,-96.1302986,Public - Credit card after hours,287
E85,Menlo Park Veterans Affairs Medical Center,Menlo Park,CA,E,37.466879999999996,-122.163,Private - Government only,288
ELEC,Autocenters Nissan,Wood River,IL,E,38.8586473,-90.06689320000001,Private,289
LPG,INDOT - Beanblossom Maintenance Unit,Freetown,IN,E,38.97301289999999,-86.1343988,Private,290
CNG,Ward Alternative Energy - Longmont CNG Station,Longmont,CO,E,40.146413700000004,-105.1145973,Public - Credit card at all times,291
ELEC,Hampton Inn,Rutland,VT,E,43.583933,-72.96996700000001,Public,292
LPG,Connelly RV Resort and Kamper's Lodge,Wilson,NC,E,35.746035,-77.873964,Public - Call ahead,293
CNG,Ohio Department of Transportation - District 12,Garfield Heights,OH,E,41.415443700000004,-81.6151916,Private,294
E85,Anew,Zeeland,MI,E,42.8137389,-85.989809,Public - Credit card at all times,295
ELEC,Nelson Nissan,Broken Arrow,OK,E,36.071228000000005,-95.80045799999999,Public - Call ahead,296
ELEC,TUCSON RENTAL,Tucson,AZ,E,32.2361565,-110.78179170000001,Public,297
LPG,U-Haul,Springfield,MO,E,37.2299669,-93.2612323,Public,298
LPG,Suburban Propane,Charlotte,MI,E,42.5922489,-84.7911848,Public - Call ahead,299
ELEC,Mountain Edge Cafe,Mill City,OR,E,44.757142,-122.48088500000001,Public,300
ELEC,Brown's Fairfax Nissan,Fairfax,VA,E,38.8530341,-77.3244478,Private,301
LPG,Froman Oil & Propane,Claremore,OK,E,36.353369,-95.58416690000001,Public,302
LPG,Ted Johnson Propane,Baldwin Park,CA,E,34.106238,-117.9505061,Public,303
CNG,SunLine Transit Agency,Thousand Palms,CA,E,33.8153399,-116.39428329999998,Public - Credit card at all times,304
ELEC,NECA-IBEW Electrical Training Center,Portland,OR,E,45.557884,-122.497748,Public,305
CNG,Alternative Vehicle Service Group - Tewksbury,Tewksbury,MA,E,42.628424,-71.2734198,Public - Credit card at all times,306
E85,Speedway #5543,Commerce,MI,E,42.59250170000001,-83.4455115,Public,307
E85,Signal Food,Ozark,MO,E,37.070133899999995,-93.2204668,Public,308
LPG,Thompson Gas,North Wilkesboro,NC,E,36.1592725,-81.15363470000001,Public,309
ELEC,BROOKFIELD WEST,LA,CA,E,34.052541399999996,-118.25296609999998,Public,310
ELEC,INTUIT INC,Mountain View,CA,E,37.4298846,-122.0966473,Public,311
ELEC,Firelite Lodge,Tahoe Vista,CA,T,39.2396769,-120.0477726,TEMPORARILY UNAVAILABLE (Public),312
ELEC,Central Connecticut State University - Student Center,New Britain,CT,E,41.693068,-72.767971,Public,313
ELEC,InterCity Transit,Olympia,WA,E,47.044295700000006,-122.85764409999999,Public,314
ELEC,Walmart #2321 - Kailua-Kona HI,Kailua-Kona,HI,E,19.645467,-155.99028700000002,Public,315
E85,Pioneer Travel Plaza,Richfield,WI,E,43.282288,-88.19695899999998,Public,316
ELEC,NRG eVgo - Katy Mills Mall,Katy,TX,E,29.775709000000003,-95.807992,Public - Card key at all times,317
ELEC,UW,Madison,WI,E,43.074136700000004,-89.40863540000001,Public,318
LPG,Pilot Travel Center,Stanfield,OR,E,45.7658448,-119.2056882,Public,319
E85,Casey's General Store,St. James,MN,E,43.981211200000004,-94.6273873,Public,320
HY,Clean Energy - RTC Ronemus,Las Vegas,NV,E,36.214088700000005,-115.2575717,Private - Government only,321
ELEC,Ingles Market,Asheville,NC,E,35.630596000000004,-82.552083,Public,322
E85,Stripes Store #2221,Corpus Christi,TX,E,27.693267,-97.415679,Public,323
ELEC,"""North 40"" Parking Lot",Plano,TX,E,33.021846999999994,-96.697517,Public,324
E85,Spinx #233,Spartanburg,SC,E,34.9501739,-81.91730600000001,Public,325
CNG,City of Los Angeles - Port of Los Angeles - Administration,Los Angeles,CA,E,33.7411549,-118.28136709999998,Private,326
ELEC,Data Cave,Columbus,IN,E,39.183267,-85.8947,Private,327
BD,Pacific Biodiesel Inc - Burt's Service,Honolulu,HI,E,21.3318109,-157.866066,Public,328
ELEC,Gay Brewer Jr Golf Course,Lexington,KY,E,38.035604299999996,-84.52542270000002,Public,329
E85,Chevron,Davis,CA,E,38.540340500000006,-121.7319544,Public,330
E85,Propel Fuels - Shell,Norwalk,CA,E,33.9092939,-118.07621129999998,Public,331
ELEC,AutoNation Nissan of Marietta,Marietta,GA,E,33.9298795,-84.5086792,Public - Call ahead,332
E85,Murray State University,Murray,KY,E,36.616933,-88.3193278,Private - Government only,333
LPG,Blossman Gas Inc,Laurel,MS,E,31.6848419,-89.1468252,Public,334
E85,Brookville Maintenance Facility,Silver Spring,MD,E,38.998154,-77.057344,Private - Government only,335
E85,Kwik Trip #235,Fond Du Lac,WI,E,43.783265,-88.44775200000001,Public,336
ELEC,JBG - Choke Cherry - Rockville MD,Rockville,MD,E,39.112689,-77.185113,Private,337
E85,Break Time Convenience Store #3026,Columbia,MO,E,38.957916,-92.372101,Public,338
ELEC,Roland D Kelly Nissan,Beverly,MA,E,42.560051,-70.884297,Public - Call ahead,339
ELEC,OUC,Orlando,FL,E,28.528024699999996,-81.4475861,Public,340
ELEC,Echo Aventura,Aventura,FL,E,25.949131,-80.1354575,Public,341
LPG,Potts Gas Co,Canton,TX,E,32.6059006,-95.85029229999999,Public - Call ahead,342
E85,Holiday Stationstore #73,Bloomington,MN,E,44.851068100000006,-93.28788430000002,Public,343
E85,Bonneville Power Administration,Vancouver,WA,E,45.662257000000004,-122.66448899999999,Private - Government only,344
E85,Robert J Dole Medical Center,Wichita,KS,E,37.681351899999996,-97.274539,Private,345
ELEC,TRANSCOMM,Boston,MA,E,42.334818799999994,-71.071088,Public,346
E85,Kum & Go #302,Clear Lake,IA,E,43.1336852,-93.3508873,Public,347
ELEC,City of Richmond - Main Street Center,Richmond,VA,P,37.5409689,-77.432979,PLANNED - not yet accessible (Public),348
LPG,Waltlou Propane Gas,Fredericksburg,VA,E,38.343364,-77.4596989,Public,349
ELEC,2800 San Jacinto,Houston,TX,E,29.742915999999997,-95.373811,Public,350
ELEC,Las Vegas Convention Center,Las Vegas,NV,E,36.132778,-115.15527800000001,Public,351
ELEC,Fox Studio Operations,Los Angeles,CA,E,34.049144,-118.41269399999999,Public,352
ELEC,DRY CREEK INN,Healdsburg,CA,E,38.625914,-122.87678419999999,Public,353
E85,Road Ranger #181,Springfield,IL,E,39.7136311,-89.64731119999998,Public,354
ELEC,Colorado Mountain College - Leadville,Leadville,CO,E,39.2401051,-106.30247759999999,Public,355
ELEC,CPSE-SATX,San Antonio,TX,E,29.470615000000002,-98.464322,Public,356
ELEC,Westin Kierland Resort and Spa,Scottsdale,AZ,E,33.625432,-111.93287099999999,Public,357
LPG,U-Haul,Salt Lake City,UT,E,40.687699,-111.889744,Public,358
LPG,Fencl Oil & LP Co,Decorah,IA,E,43.277105999999996,-91.74005600000001,Public - Call ahead,359
LPG,Western Propane Services Inc,Garden Grove,CA,E,33.779011100000005,-118.00119550000001,Public,360
BD,Stripes Store #210,Del Rio,TX,E,29.3492929,-100.9176528,Public,361
LPG,Servigas - Ikard & Newsom,Vado,NM,E,32.1157308,-106.6650808,Public,362
E85,Corner Store #1076,San Antonio,TX,E,29.469027500000003,-98.6755194,Public,363
ELEC,Ruby Falls,Chattanooga,TN,E,35.018887,-85.33976700000001,Public,364
ELEC,Sierra Club,Boise,ID,E,43.6184226,-116.1955915,Public,365
ELEC,Hall Nissan,Chesapeake,VA,E,36.8650124,-76.41815159999999,Private,366
ELEC,Portland General Electric,Tualatin,OR,E,45.375865000000005,-122.75821,Private,367
ELEC,JNS,Berwyn,IL,E,41.831528000000006,-87.794338,Public,368
BD,Person County - North Carolina DOT,Roxboro,NC,E,36.391783700000005,-78.9971506,Private - Government only,369
ELEC,NRG eVgo - Whole Foods Market,Berkeley,CA,E,37.855671,-122.260645,Public - Card key at all times,370
ELEC,CARCHARGING,New York,NY,E,40.741368,-73.975668,Public,371
ELEC,AVALON CHARGE,Alpharetta,GA,E,34.070161,-84.27524720000001,Public,372
LPG,St George 76 - Circle K,Hemet,CA,E,33.7478031,-116.97776440000001,Public,373
ELEC,UC Davis - Lot 49 Visitor Parking,Davis,CA,E,38.5344111,-121.76000259999998,Public,374
ELEC,SCOPE - Norfolk,Norfolk,VA,E,36.8521468,-76.2861968,Public,375
ELEC,Virginia Commonwealth University (VCU) - N-Deck Parking Deck,Richmond,VA,E,37.543387,-77.42953,Private,376
ELEC,"Walgreens - Stone Mountain, GA #7608",Stone Mountain,GA,E,33.840326399999995,-84.1311413,Public,377
ELEC,Starbucks/Jimmy John's Parking Lot,Galveston,TX,E,29.308233,-94.79273,Public,378
E85,Super Pantry #10,Danville,IL,E,40.145156799999995,-87.61189940000001,Public,379
ELEC,Fort Collins Senior Center,Fort Collins,CO,E,40.5559661,-105.0979855,Public,380
ELEC,1888 CPE,Los Angeles,CA,E,34.061156,-118.41344309999998,Public,381
ELEC,Springfield - Courts Parking,Springfield,OR,E,44.047691,-123.02013500000001,Public,382
E85,Stripes Store #2406,Lubbock,TX,E,33.4919545,-101.90496800000001,Public,383
ELEC,FLORIDA   TECH,Melbourne,FL,E,28.062423300000003,-80.6218815,Public,384
E85,Propel Fuels - Ramos Oil Co - Shell,West Sacramento,CA,E,38.569408,-121.521431,Public,385
ELEC,Westin Maui Resort & Spa,Lahaina,HI,E,20.919806,-156.694844,Public,386
ELEC,Harry Green Chevrolet,Clarksburg,WV,E,39.277617,-80.29960799999999,Public - Call ahead,387
E85,Holiday Stationstore #405,Rogers,MN,E,45.192971,-93.5519541,Public,388
LPG,AmeriGas,Arlington,TX,E,32.630437,-97.082296,Public - Call ahead,389
ELEC,WELCOME TO PCC,Pasadena,CA,E,34.1451874,-118.1210632,Public,390
ELEC,TARGET CORP,San Rafael,CA,E,37.955212,-122.49126389999999,Public,391
ELEC,Broccolo Tree and Lawncare Garden Center,Fairport,NY,E,43.1268249,-77.386031,Public,392
ELEC,AC Transit,Emeryville,CA,E,37.835118,-122.28376599999999,Private,393
ELEC,Camelback Ford,Phoenix,AZ,E,33.510529999999996,-112.04785700000001,Public,394
E85,Bucky's Express #84,Omaha,NE,E,41.2291809,-96.04353640000001,Public,395
ELEC,COLGATE,Hamilton,NY,E,42.817555,-75.5392648,Public,396
LPG,West Texas Gas,Tulia,TX,E,34.5417734,-101.7764443,Public,397
ELEC,City of Davis - Parking Lot,Davis,CA,E,38.552017799999994,-121.7404759,Public,398
ELEC,Park Place Regional Library,Houston,TX,E,29.688140999999998,-95.276637,Public,399
LPG,INDOT - Grantsburg Maintenance Unit,English,IN,E,38.291897,-86.46866059999999,Private,400
E85,Barksdale Air Force Base,Barksdale AFB,LA,E,32.4991119,-93.67473079999999,Private - Government only,401
ELEC,Riverton Mitsubishi,Sandy,UT,E,40.554688,-111.89426499999999,Private,402
ELEC,FNG FOX LOT,Los Angeles,CA,E,34.0508782,-118.4121333,Public,403
CNG,Trillium CNG - United Parcel Service - West Sacramento,West Sacramento,CA,E,38.5732516,-121.54623810000001,Private - Fleet customers only,404
ELEC,East Hartford Public School - Department of Facilities,East Hartford,CT,E,41.78392,-72.6047,Public,405
ELEC,City of Bowling Green - Parking Lot 2,Bowling Green,OH,E,41.373988399999995,-83.648724,Public,406
ELEC,Houston Central Library,Houston,TX,E,29.759034999999997,-95.37,Public,407
HY,Hydrogen Frontier - Burbank,Burbank,CA,E,34.174434999999995,-118.310501,Public - Card key at all times,408
ELEC,WALNUT CREEK,Walnut Creek,CA,E,37.8991165,-122.05917360000001,Public,409
CNG,SoCalGas - Riverside Base,Riverside,CA,E,33.97151160000001,-117.371788,Public - Credit card at all times,410
ELEC,Tumwater - Exit 102,Tumwater,WA,E,46.993663500000004,-122.90823799999998,Public,411
CNG,Bee Green CNG,Ambridge,PA,E,40.619291499999996,-80.2263933,Public - Credit card at all times,412
ELEC,Orr Nissan of Corinth,Corinth,TX,E,33.157906,-97.06534,Public - Call ahead,413
E85,Jet-Pep Store #29,Cullman,AL,E,34.22775,-86.8606928,Public,414
E85,Sunoco - McBirney's Auto Service,Massapequa,NY,E,40.692811999999996,-73.464669,Public - Credit card after hours,415
ELEC,JBG - Security Lane - Rockville MD,Rockville,MD,E,39.041786,-77.111975,Private,416
ELEC,Coda of Silicon Valley,Santa Clara,CA,E,37.32399,-121.97399999999999,Public,417
ELEC,Omak Inn,Omak,WA,E,48.4212278,-119.50527190000001,Public,418
ELEC,Element Hotels - Ewing,Ewing,NJ,E,40.27801132,-74.82046509,Public,419
ELEC,Koko Marina Shopping Center,Honolulu,HI,E,21.278614,-157.70533400000002,Public,420
LPG,Hopkins Propane,Stigler,OK,E,35.251,-95.1146,Public - Call ahead,421
BD,Central Washington Biodiesel,Ellensburg,WA,E,47.00154860000001,-120.56543470000001,Public - Call ahead,422
ELEC,Howell Mill LLC (Riverfront Parkway),Chattanooga,TN,E,35.041802000000004,-85.320298,Public,423
ELEC,Town Center Nissan,Kennesaw,GA,E,34.009954,-84.57675,Private,424
LPG,Spalding Gas,Griffin,GA,E,33.2488962,-84.2693589,Public - Call ahead,425
ELEC,CARCHARGING,Pittsburgh,PA,E,40.441505,-79.9951949,Public,426
ELEC,FRED MEYER - #460 Salmon Creek,Vancouver,WA,E,45.720603000000004,-122.66313500000001,Public,427
ELEC,Delaware Welcome Center and Travel Plaza - Tesla,Newark,DE,E,39.662187599999996,-75.69113859999999,Public,428
ELEC,Los Angeles County Sheriff - Twin Towers Detention Facility,Los Angeles,CA,E,34.058696000000005,-118.230483,Private,429
ELEC,NATIONAL GRID,Amherst,NY,E,43.0394249,-78.8209183,Public,430
ELEC,New Brunswick Parking Authority,New Brunswick,NJ,E,40.4980374,-74.44537779999999,Public,431
ELEC,Richfield Bloomington Honda,Richfield,MN,E,44.8628848,-93.28522070000001,Public - Call ahead,432
ELEC,Briggs Nissan of Lawrence,Lawrence,KS,E,38.93029179999999,-95.2621851,Private,433
ELEC,Middle Tennessee Electric Membership Corp - District Office,Murfreesboro,TN,E,35.843255,-86.446727,Private,434
E85,SuperAmerica #5006,Lakeville,MN,E,44.647683799999996,-93.2982771,Public,435
CNG,Fast Lane Travel Plaza,Weatherford,OK,E,35.5392995,-98.6587119,Public,436
CNG,Clean Energy - RTC Bonanza,Las Vegas,NV,E,36.1759587,-115.1396179,Public - Credit card at all times,437
ELEC,South Side Parking Garage (SSPG),College Station,TX,E,30.613220000000002,-96.33386,Private,438
E85,Maxwell Air Force Base,Montgomery,AL,E,32.373971999999995,-86.3516683,Private - Government only,439
LPG,Menards,Plainfield,IL,E,41.637888399999994,-88.20291800000001,Public,440
ELEC,350GREEN,Anaheim,CA,E,33.8029366,-117.943634,Public,441
LPG,Blackhawk Propane,South Beloit,IL,E,42.4859078,-89.04538609999999,Public,442
LPG,Blossman Gas Inc,Meridian,MS,E,32.449326899999996,-88.627151,Public - Call ahead,443
ELEC,AZALEA,South Gate,CA,E,33.9524131,-118.18790919999999,Public,444
E85,Georgia Power,Macon,GA,E,32.8174747,-83.67523940000001,Private,445
E85,Meijer Gas #196,Portage,MI,E,42.186074600000005,-85.60318249999999,Public,446
LPG,Bi-State Propane,Fallon,NV,E,39.48681,-118.874,Public - Call ahead,447
LPG,U-Haul,Lancaster,PA,E,40.0924123,-76.3491773,Public,448
E85,Speedway #2325,Dundee,MI,E,41.958706400000004,-83.6704542,Public,449
ELEC,Ontario International Airport,Ontario,CA,E,34.0616,-117.5935,Public,450
ELEC,350GREEN,Richmond,CA,E,37.980725,-122.328355,Public,451
ELEC,University of California Santa Cruz - West Parking,Santa Cruz,CA,E,36.9776244,-122.0543182,Public,452
ELEC,148,Jersey City,NJ,E,40.7212965,-74.0401627,Public,453
LPG,Moeder Oil,Pratt,KS,E,37.655429999999996,-98.7391,Public - Call ahead,454
E85,Thorntons #315,Aurora,IL,E,41.807976700000005,-88.28089899999998,Public,455
ELEC,Colorado Mountain College - Rifle,Rifle,CO,E,39.5202102,-107.73456750000001,Public,456
E85,Murphy USA #6843,Sioux City,IA,E,42.4361795,-96.3638007,Public - Credit card after hours,457
ELEC,Riverhead Auto Mall,Riverhead,NY,E,40.924952000000005,-72.70569990000001,Private,458
ELEC,CCC,Sacramento,CA,E,38.62197020000001,-121.52110449999999,Public,459
LPG,U-Haul,Tempe,AZ,E,33.341646999999995,-111.96341899999999,Public,460
E85,Sacramento State Garage,Sacramento,CA,E,38.5752714,-121.4959965,Private - Government only,461
ELEC,CITY OF SOLVANG,Solvang,CA,E,34.5957527,-120.14345549999999,Public,462
ELEC,Puyallup Nissan,Puyallup,WA,E,47.2071047,-122.2958044,Private,463
LPG,Taylor Butane Co,Taylor,TX,E,30.5634815,-97.4488915,Public - Call ahead,464
CNG,Clean Energy - PS Energy - Lithonia,Lithonia,GA,E,33.712794,-84.125795,Public - Credit card at all times,465
LPG,Suburban Propane,Eugene,OR,E,44.0620974,-123.13546170000001,Public,466
ELEC,"Walgreens - San Diego, CA #6094",San Diego,CA,E,32.749527,-117.20694499999999,Public - Card key at all times,467
ELEC,Kelly Nissan of Lynnfield,Lynnfield,MA,E,42.51013629999999,-71.0092109,Private,468
LPG,Frio Canyon Propane,Leakey,TX,E,29.719479999999997,-99.7636,Public - Call ahead,469
CNG,City of New York - Flushing Meadows Corona Park,Flushing,NY,E,40.740789,-73.849372,Private - Government only,470
ELEC,Commons Municipal Parking Garage,Greenville,SC,E,34.8530379,-82.3953179,Public,471
ELEC,The Muller Company - Los Angeles - 5110,Los Angeles,CA,E,33.98863,-118.367455,Public,472
LPG,MFA Oil & Propane Co,Keota,OK,E,35.2557,-94.9219,Public - Call ahead,473
ELEC,Mount Hood Ski Bowl West,Government Camp,OR,E,45.301908399999995,-121.773296,Public,474
BD,Citgo Easy Stop Food - Mid-State Energy,Sarasota,FL,E,27.2693278,-82.4835626,Public,475
E85,Kum & Go #405,Bentonville,AR,E,36.342764700000004,-94.1844651,Public,476
ELEC,TOWSON,Towson,MD,E,39.390910999999996,-76.60764250000001,Public,477
E85,Nebraska Transportation Services Bureau - Dispatch Building,Lincoln,NE,E,40.811394,-96.699689,Private - Government only,478
ELEC,The Muller Company - Los Angeles - 5130,Los Angeles,CA,E,33.988971,-118.36366399999999,Public,479
E85,Gallahan Irish Market,Peru,IN,E,40.7447376,-86.09350049999998,Public,480
ELEC,IRVINE CO OFC,Newport Beach,CA,E,33.615286600000005,-117.8714915,Public,481
ELEC,Town of  Dyer - Town Hall,Dyer,IN,E,41.492057,-87.522819,Public,482
ELEC,"Walgreens - Aurora, CO #6513",Aurora,CO,E,39.675265,-104.80917590000001,Public - Card key at all times,483
ELEC,Kwik Trip #317,Sparta,WI,E,43.940289,-90.78625,Public,484
CNG,Republic Services,Indianapolis,IN,E,39.796176,-86.1735818,Private,485
ELEC,Volkswagen Group of America,Belmont,CA,E,37.5335013,-122.2723743,Public - Call ahead,486
CNG,St Johns County,St. Augustine,FL,P,29.912283000000002,-81.382775,PLANNED - not yet accessible (Public),487
ELEC,CARCHARGING,San Jose,CA,E,37.333901899999994,-121.88927439999999,Public,488
BD,City of Phoenix - 91st Avenue WWTP,Tolleson,AZ,E,33.3944461,-112.2537695,Private,489
CNG,Waste Management - Delaware Valley North,Bristol,PA,E,40.1211925,-74.8568815,Private,490
ELEC,Salem Riverfront Park,Salem,OR,E,44.9424308,-123.04323049999999,Public,491
E85,McClure Oil #50,South Bend,IN,E,41.6944988,-86.2155743,Public,492
LPG,Fair Propane,Kosciusko,MS,E,33.068336800000004,-89.5625151,Public,493
ELEC,Downey Nissan,Downey,CA,E,33.946203999999994,-118.14571799999999,Private,494
LPG,U-Haul,Rochester,MN,E,44.030825,-92.48439,Public,495
ELEC,TARGET CORP,Davis,CA,E,38.5539587,-121.69970149999999,Public,496
E85,Family Express #34 - Roselawn,Roselawn,IN,E,41.144816999999996,-87.273803,Public,497
ELEC,Jackie Cooper Nissan,Tulsa,OK,E,36.021440999999996,-95.88767790000001,Private,498
ELEC,Sultan - Hwy 2 & 3rd St,Sultan,WA,E,47.862157,-121.816597,Public,499
ELEC,Alexander Nissan - Cool Springs,Franklin,TN,E,35.9569403,-86.8090886,Private,500
ELEC,Lewisville Autoplex,Lewisville,TX,E,33.024162,-96.989113,Public,501
ELEC,Apple Nissan,York,PA,E,39.981561,-76.69913299999999,Public - Call ahead,502
ELEC,Carnegie Museum,Pittsburgh,PA,E,40.443504100000006,-79.9495881,Public,503
E85,United Co-op,Reedsburg,WI,E,43.532487200000006,-90.00631240000001,Public,504
ELEC,"Shores, LLC.",Marina del Rey,CA,E,33.9784671,-118.4595994,Public - Card key at all times,505
E85,Holiday Stationstore #304,Sioux Falls,SD,E,43.6022101,-96.7112911,Public,506
LPG,Mid-Georgia Propane,Macon,GA,E,32.830855699999994,-83.72895890000001,Public - Call ahead,507
ELEC,CITY OF GR PARK,Grand Rapids,MI,E,42.9638062,-85.6715012,Public,508
E85,Speedway #1018,Indianapolis,IN,E,39.779691,-86.2500192,Public,509
LPG,WTG Fuels,Floydada,TX,E,33.9920451,-101.34118199999999,Public - Call ahead,510
E85,Rebel Oil Co #91,Las Vegas,NV,E,36.19616,-115.09946799999999,Public,511
E85,Meijer Gas #316,Battle Creek,MI,E,42.2973229,-85.23923640000001,Public,512
ELEC,Gladstone Nissan,Gladstone,OR,E,45.3799237,-122.60424679999998,Public - Call ahead,513
E85,Shell - 7-Eleven - Pearson Fuels,Rancho Cordova,CA,E,38.61496079999999,-121.2687875,Public,514
E85,Popke's Car Care,Rock Rapids,IA,E,43.4318612,-96.1755228,Public - Credit card after hours,515
ELEC,Causeway Nissan,Manahawkin,NJ,E,39.700208,-74.272339,Public - Call ahead,516
BD,Idaho National Laboratory,Idaho Falls,ID,E,43.517660799999994,-112.0491841,Private,517
ELEC,Rafting in the Smokies Hartford,Hartford,TN,E,35.816939,-83.145014,Public,518
ELEC,CONSUMERSENERGY,Lansing,MI,E,42.7510653,-84.5600745,Public,519
ELEC,City of Bellevue - Bellevue Service Center,Bellevue,WA,E,47.63811493,-122.1882,Private,520
E85,South Central Grain & Energy,Hector,MN,E,44.738653,-94.714522,Public - Credit card after hours,521
ELEC,SIERRA COLLEGE,Grass Valley,CA,E,39.235783500000004,-121.046444,Public,522
ELEC,KAUFMAN FIN GRP,Tampa,FL,E,28.1361164,-82.374688,Public,523
HY,Richmond Field Station - UC Berkeley,Richmond,CA,E,37.915696000000004,-122.334695,Private - Government only,524
ELEC,"Walgreens - Oregon City, OR #3801",Oregon City,OR,E,45.336162,-122.591209,Public - Card key at all times,525
ELEC,Bob Moore Nissan of Tulsa,Tulsa,OK,E,36.121359999999996,-95.8839,Public,526
ELEC,Northwoods Nissan,Hummels Wharf,PA,E,40.836286,-76.83465600000001,Public - Call ahead,527
ELEC,King County - King County Van Distribution Center,Redmond,WA,E,47.67584,-122.091467,Private,528
CNG,Questar Fueling - San Antonio,San Antonio,TX,P,29.4208688,-98.3859817,PLANNED - not yet accessible (Public - Credit card at all times),529
ELEC,Kwik Trip #316,Hutchinson,MN,E,44.871014,-94.37621999999999,Public,530
E85,Weld County Government,Greeley,CO,E,40.446968,-104.70404,Private - Government only,531
ELEC,"Walgreens - Chula Vista, CA #2623",Chula Vista,CA,E,32.613528,-117.068816,Public - Card key at all times,532
CNG,Naples Phillips 66,Naples,UT,E,40.4337484,-109.4993989,Public - Credit card at all times,533
E85,Propel Fuels - Shell,Murrieta,CA,E,33.5557069,-117.1780426,Public,534
ELEC,St Pete Beach City Hall,St. Pete Beach,FL,E,27.744,-82.7475,Public,535
E85,Kroger Fuel Center #435,Loveland,OH,E,39.22978639999999,-84.2541032,Public,536
ELEC,InfoStructure Inc,Humboldt,TN,E,35.8222071,-88.90755340000001,Public - Card key at all times,537
LPG,Active Enterprises Inc,Long Beach,WA,E,46.360704,-124.053964,Public,538
ELEC,Cafe Yumm! - On Broadway,Eugene,OR,E,44.049726,-123.08143419999999,Public,539
CNG,Hearst Castle,San Simeon,CA,E,35.650998200000004,-121.18568300000001,Private - Government only,540
ELEC,MAUI OCEAN CLUB,Lahaina,HI,E,20.9158039,-156.69508359999998,Public,541
ELEC,Westar Energy - Shawnee Service Center,Shawnee,KS,E,38.971247999999996,-94.85998599999999,Public,542
CNG,CNG 4 America - Katy,Katy,TX,E,29.7846686,-95.8011803,Public - Credit card at all times,543
ELEC,CARCHARGING,Quincy,MA,E,42.2392068,-70.983317,Public,544
ELEC,Southern Connecticut University,New Haven,CT,E,41.33332539999999,-72.9502064,Public - Card key at all times,545
E85,Marathon - Washtenaw Oil,Ann Arbor,MI,E,42.255733,-83.688447,Public,546
ELEC,PALO ALTO CA,Palo Alto,CA,E,37.44651029999999,-122.1621399,Public,547
ELEC,ShopRite Plaza,Niskayuna,NY,E,42.8165908,-73.8898536,Public,548
LPG,U-Haul,Asheville,NC,E,35.579327,-82.51824,Public,549
E85,Norman's Auto Service,New Hyde Park,NY,E,40.75269229999999,-73.70254130000002,Public,550
ELEC,CITYOFSANTAROSA,Santa Rosa,CA,E,38.4378005,-122.71183400000001,Public,551
ELEC,Deacon Jones Nissan,Goldsboro,NC,E,35.399575,-78.01511500000001,Public - Call ahead,552
LPG,Miller Gas Co,Tremonton,UT,E,41.7111648,-112.19022779999999,Public,553
CNG,SunLine Transit Agency,Indio,CA,E,33.714358000000004,-116.211564,Public - Credit card at all times,554
ELEC,Menlo Park Mall - Tesla,Edison,NJ,E,40.547671,-74.3364339,Public,555
ELEC,707 BROADWAY,San Diego,CA,E,32.71556330000001,-117.1580807,Public,556
BD,Lee County - North Carolina DOT,Sanford,NC,E,35.472466600000004,-79.1583179,Private - Government only,557
ELEC,McGrath Nissan,Elgin,IL,E,42.0337742,-88.2552647,Public - Call ahead,558
LPG,Mr C's Ace Hardware,Hurst,TX,E,32.8322186,-97.18651209999999,Public,559
ELEC,Walmart #3883 - Kapolei HI,Kapolei,HI,E,21.340984,-158.07556399999999,Public,560
LPG,Flying J,North Platte,NE,E,41.1012868,-100.726936,Public,561
ELEC,TAITEM,Ithaca,NY,E,42.438969,-76.502064,Public,562
ELEC,CARCHARGING,Los Angeles,CA,E,34.049261,-118.257024,Public,563
CNG,Orem City,Orem,UT,E,40.314777899999996,-111.71774599999999,Private - Fleet customers only,564
ELEC,NAVFAC,Fallon,NV,E,39.4028461,-118.725293,Public,565
E85,Cenex - Olivia,Olivia,MN,E,44.776496200000004,-94.99424880000001,Public - Credit card after hours,566
E85,Sunoco - Pettysville Junction,Pinckney,MI,E,42.4674947,-83.875715,Public,567
LPG,Citgo,Port Washington,WI,P,43.375607,-87.893192,PLANNED - not yet accessible (Public),568
LPG,U-Haul,Memphis,TN,E,35.156615,-89.883212,Public,569
E85,Sac-n-Pac Shell,Bastrop,TX,E,30.109968,-97.306666,Public,570
ELEC,Downtown Properties,Los Angeles,CA,E,34.04889,-118.259518,Public,571
LPG,AmeriGas,Jefferson,LA,E,29.957641100000004,-90.14055340000002,Public,572
ELEC,Gate Convenience Store,Jacksonville,FL,E,30.266824,-81.523261,Public,573
LPG,Frito Lay - Plymouth,Plymouth,MI,E,42.38921999999999,-83.49038399999998,Private,574
LPG,Mother Lode Propane,Angels Camp,CA,E,38.039032,-120.51640230000001,Public - Call ahead,575
E85,Kwik Trip #681,St. Michael,MN,E,45.217558000000004,-93.598394,Public,576
ELEC,ROMEL 400 SECR,San Mateo,CA,E,37.562221799999996,-122.32537990000002,Private,577
E85,Cenex - Garner Townmart,Garner,IA,E,43.105733,-93.59916899999999,Public - Credit card after hours,578
ELEC,Wellesley Office Park - 80 William,Wellesley,MA,E,42.3190557,-71.2350075,Public,579
ELEC,Nissan of Newport News,Newport News,VA,E,37.151672,-76.531313,Private,580
ELEC,City of Pleasanton - City Hall,Pleasanton,CA,E,37.65831375,-121.878891,Public,581
ELEC,Capital One - Garage Ground Level,Richmond,VA,E,37.62755585,-77.67361,Private,582
LPG,Western States Propane,Elko,NV,E,40.8355588,-115.7516817,Public,583
LPG,Bassemiers Fireplace Patio and Spas,Evansville,IN,E,37.9915571,-87.498868,Public - Call ahead,584
E85,Novi Shell,Novi,MI,E,42.509848,-83.466229,Public,585
LPG,M & W Butane,Shannon,MS,E,34.125961,-88.7194,Public,586
LPG,Flying J,Aurora,CO,E,39.76250659999999,-104.79316,Public,587
ELEC,Los Angeles County Sheriff - Men's Central Jail,Los Angeles,CA,E,34.059664,-118.2318225,Private,588
LPG,Ferrellgas,Mount Washington,KY,E,38.0682386,-85.5509598,Public - Call ahead,589
ELEC,NATIONAL GRID,Queensbury,NY,E,43.343524,-73.686323,Public,590
CNG,Natural Fuels LLC,Huntsville,TN,E,36.411596,-84.524446,Public - Call ahead,591
ELEC,Porter Nissan,Newark,DE,E,39.689046999999995,-75.740166,Public - Call ahead,592
ELEC,PARK SFO,South San Francisco,CA,E,37.628235,-122.38474599999999,Public,593
ELEC,NRG eVgo - Black Walnut Cafe,Coppell,TX,E,32.989482,-96.99361800000001,Public - Card key at all times,594
LPG,Blossman Gas Inc,Florence,MS,E,32.183839899999995,-90.135176,Public - Call ahead,595
LPG,Heritage Propane,Murphy,NC,E,35.108351299999995,-84.01893559999999,Public - Call ahead,596
ELEC,Lionshead Parking Structure,Vail,CO,E,39.6442866,-106.38687759999998,Public,597
ELEC,RINCONADA LIB,Palo Alto,CA,E,37.4454935,-122.13899779999998,Public,598
LPG,Scott Petroleum,Grenada,MS,E,33.7795316,-89.77928259999999,Public,599
ELEC,Barberino Nissan,Wallingford,CT,E,41.467401,-72.817451,Public - Call ahead,600
ELEC,Phoenix Convention Center - East Garage 4th Level,Phoenix,AZ,E,33.447637,-112.066308,Private,601
ELEC,Houston TranStar,Houston,TX,E,29.782602,-95.44062,Private,602
LPG,U-Haul,Erie,PA,E,42.1528735,-79.98930899999999,Public,603
ELEC,WOLF TRAP,Vienna,VA,E,38.933429700000005,-77.2649689,Public,604
CNG,Norwich Public Utilities,Norwich,CT,E,41.527549900000004,-72.0640928,Public - Card key at all times,605
ELEC,Crosslake Campground,Crosslake,MN,E,46.671501899999996,-94.110957,Public,606
ELEC,World Car Nissan,San Antonio,TX,E,29.556508,-98.34469,Private,607
CNG,Anadarko Carthage CNG Facility,Carthage,TX,E,32.1635076,-94.30947909999999,Private,608
ELEC,BEVERLY HILLS,Beverly Hills,CA,E,34.0688965,-118.40322409999999,Public,609
ELEC,El Dorado Transit Park & Ride,El Dorado Hills,CA,E,38.6476,-121.06700000000001,Public,610
LPG,U-Haul,Brunswick,ME,E,43.9074122,-69.9187934,Public,611
E85,Harvest Land Co-op Cenex,Morgan,MN,E,44.414627100000004,-94.927709,Public - Credit card at all times,612
ELEC,TOWN OF WINDSOR,Windsor,CA,E,38.5494201,-122.8140062,Public,613
ELEC,ING - Atlanta,Atlanta,GA,E,33.912815,-84.423484,Public,614
ELEC,KOHL'S,Santa Clarita,CA,E,34.39217,-118.46881869999999,Public,615
CNG,Great River Energy,West Burlington,IA,E,40.827376,-91.18523,Private,616
ELEC,TORRE,La Quinta,CA,E,33.7070547,-116.28380159999999,Public,617
CNG,Kwik Trip #204,Wausau,WI,E,44.914240899999996,-89.64837790000001,Public,618
E85,Lewis and Clark Mini Mart,Wausa,NE,E,42.57025609999999,-97.5247875,Public - Credit card after hours,619
CNG,Bronx Zoo,Bronx,NY,E,40.85076711,-73.88129351,Private,620
ELEC,Blink Network (2nd Avenue),Phoenix,AZ,E,33.443432,-112.07743700000002,Private,621
E85,Elkton One Stop Shop - Ignash Petroleum Clark Station,Elkton,MI,E,43.8181869,-83.1832228,Public,622
ELEC,Florida Power & Light - Palm Beach International Airport,West Palm Beach,FL,E,26.6775722,-80.1002651,Private,623
E85,Edwards Air Force Base,Edwards AFB,CA,E,34.919864000000004,-117.89551999999999,Private - Government only,624
E85,Kum & Go #571,Mount Vernon,MO,E,37.094869700000004,-93.8088042,Public,625
E85,Road Ranger,South Beloit,IL,E,42.491081,-88.999361,Public,626
ELEC,Lookout Mountain KOA,Trenton,GA,P,34.918123,-85.489367,PLANNED - not yet accessible (Public - Call ahead),627
ELEC,FVRC UNIT 1,Carol Stream,IL,E,41.9280054,-88.1218468,Public,628
E85,Carlson's Northside,Slayton,MN,E,43.99398970000001,-95.7533691,Public,629
CNG,City of Milwaukee - Lincoln Avenue,Milwaukee,WI,E,43.001528,-87.964148,Public - Credit card at all times,630
ELEC,McDonald's #18516 - W. A Street - Hayward CA,Hayward,CA,E,37.666474,-122.106325,Public,631
BD,Wilmette Park District - West Park Facility,Wilmette,IL,E,42.079476899999996,-87.7614992,Private,632
LPG,Frito Lay - Southgate,Southgate,MI,E,42.215584,-83.224752,Private,633
BD,Redstone Arsenal,Huntsville,AL,E,34.666376,-86.629515,Private - Government only,634
ELEC,University of Phoenix - 4025 S Riverpoint Parkway South Garage 1st Level,Phoenix,AZ,E,33.412475,-112.014045,Public,635
ELEC,TPU,Tacoma,WA,E,47.274662,-122.46676640000001,Public,636
BD,Franklin County - North Carolina DOT,Bunn,NC,E,35.942469,-78.250178,Private - Government only,637
LPG,Hicksgas,Decatur,IL,E,39.8699903,-88.9548543,Public - Call ahead,638
ELEC,MAPLE AV GARAGE,Evanston,IL,E,42.047278799999994,-87.6831544,Public,639
ELEC,ROSENBLUM,Albany,NY,E,42.6821987,-73.84819870000001,Public,640
ELEC,McCoy Mills Ford,Fullerton,CA,E,33.87015,-117.93799999999999,Private,641
BD,American Homegrown Fuel Corp - First Coast Biofuels,Lake City,FL,E,30.18535,-82.65260500000001,Public,642
ELEC,"Walgreens - Layton, UT #2523",Layton,UT,E,41.089168,-111.98698,Public - Card key at all times,643
ELEC,CONTRA COSTA,Walnut Creek,CA,E,37.9261261,-122.0524759,Public,644
ELEC,Hansel Ford Lincoln,Santa Rosa,CA,E,38.4018624,-122.71844840000001,Public - Call ahead,645
ELEC,CERRITOS CC,Norwalk,CA,E,33.887473299999996,-118.09512749999999,Public,646
LPG,Bud's Propane,Fowler,CO,E,38.13062,-104.022,Public,647
LNG,United Parcel Service,Ontario,CA,E,34.0355999,-117.58464280000001,Public - Card key at all times,648
ELEC,Alamo Drafthouse,Ashburn,VA,E,39.051411,-77.45425,Public,649
E85,BP,New Lenox,IL,E,41.514178,-87.966088,Public,650
LPG,Matheson TRIGAS,Plain City,OH,E,40.0918783,-83.24877169999998,Public,651
ELEC,Comfort Inn near Plano Medical Center,Plano,TX,E,33.01727,-96.797848,Public,652
ELEC,Mid City Nissan,Chicago,IL,E,41.953683000000005,-87.7396481,Private,653
LPG,Suburban Propane,Philadelphia,MS,E,32.7715549,-89.1210532,Public - Call ahead,654
CNG,Questar Fueling - Phoenix,Phoenix,AZ,P,33.438867200000004,-112.1982303,PLANNED - not yet accessible (Public - Credit card at all times),655
LPG,Turtle Bayou RV Park,Wallisville,TX,E,29.8387673,-94.75276159999999,Public - Call ahead,656
CNG,Pioneer Natural Resources,Trinidad,CO,E,37.1273995,-104.6686575,Private,657
ELEC,Queens Borough Hall Municipal Parking Garage and Field ,Queens,NY,P,40.714376,-73.826095,PLANNED - not yet accessible (Public),658
ELEC,Salt Lake City - Street Parking,Salt Lake City,UT,E,40.762896399999995,-111.88940420000002,Public,659
ELEC,Saint Mary's Square Garage,San Francisco,CA,E,37.7920393,-122.4043372,Public,660
ELEC,Five Star Nissan - Albany,Albany,GA,E,31.57122,-84.125568,Private,661
ELEC,WALTHAM WOODS,Waltham,MA,E,42.405444,-71.2797082,Public,662
ELEC,City of Del Mar-Beach Safety Center,Del Mar,CA,E,32.96254201,-117.26782537,Public,663
ELEC,CARCHARGING,Hutto,TX,E,30.540845899999997,-97.5634003,Public,664
ELEC,City of Lafayette Library,Lafayette,CO,E,40.0002509,-105.0991568,Public,665
ELEC,Aloha Island Mart - Waipo-Gentry,Waipahu,HI,E,21.412014000000003,-157.99881000000002,Public,666
ELEC,METRO TRANSIT,Vadnais Heights,MN,E,45.049526,-93.06492800000001,Public,667
ELEC,Premier Nissan,San Jose,CA,E,37.275144,-121.877656,Public - Call ahead,668
LPG,Converse Service,Lincoln,NE,E,40.893558,-96.644661,Public,669
ELEC,La Quinta - Tesla,Indianapolis,IN,E,39.702238,-86.07959,Public,670
E85,Qik-n-EZ #61,Springfield,IL,E,39.71335870000001,-89.6379395,Public,671
ELEC,Florida Power & Light - Customer Service East,West Palm Beach,FL,E,26.764079,-80.101516,Private,672
LPG,U-Haul,Muskegon,MI,E,43.2342648,-86.1551576,Public,673
ELEC,Bob Bell Ford,Glen Burnie,MD,E,39.179728000000004,-76.61398100000001,Private,674
CNG,Trillium CNG - San Diego Metropolitan Transit System,San Diego,CA,E,32.70598,-117.15299999999999,Private,675
E85,Kwik Trip #231,Boscobel,WI,E,43.140708000000004,-90.710225,Public,676
ELEC,Lee Nissan,Wilson,NC,E,35.756003,-77.9753,Private,677
ELEC,Sheldon Town Center,Elk Grove,CA,E,38.431610299999996,-121.2998363,Public,678
ELEC,Coulter Nissan,Surprise,AZ,E,33.6053643,-112.420275,Public - Call ahead,679
ELEC,Los Angeles Metro - Willow Street Station,Long Beach,CA,E,33.807095000000004,-118.1902102,Public,680
LNG,Clean Energy - West Branch,West Branch,IA,P,41.662728,-91.3401854,PLANNED - not yet accessible (Public - Credit card at all times),681
CNG,New Jersey Department of Transportation - Cherry Hill Facility,Cherry Hill,NJ,E,39.9105,-74.986042,Private - Government only,682
ELEC,Maita's Nissan of Sacramento,Sacramento,CA,E,38.6311894,-121.396736,Public - Call ahead,683
ELEC,CARCHARGING,Redmond,WA,E,47.6743736,-122.12716670000002,Public,684
ELEC,City of Renton - City Shops,Renton,WA,E,47.4838573,-122.1717172,Private,685
ELEC,SAN BENITO CO.,Hollister,CA,E,36.8906402,-121.399023,Public,686
ELEC,BARKLEY VILLAGE,Bellingham,WA,E,48.7704459,-122.44709650000001,Public,687
ELEC,Kwik Trip #681,St. Michael,MN,E,45.217558000000004,-93.598394,Public,688
ELEC,Kennedy House,Philadelphia,PA,P,39.954707299999995,-75.1721053,PLANNED - not yet accessible (Public),689
ELEC,Kwik Trip #897,Sheboygan,WI,E,43.773885299999996,-87.7326999,Public,690
ELEC,UC DAVIS TAPS,Davis,CA,E,38.5345092,-121.74895259999998,Public,691
E85,Break Time Convenience Store #3044,Jefferson City,MO,E,38.595621,-92.231066,Public - Credit card after hours,692
E85,Fuel 24 - Cenex,Mason City,IL,E,40.2022172,-89.71142329999998,Public - Credit card at all times,693
ELEC,Ingles Market,Lincolnton,NC,E,35.478086,-81.221634,Public,694
LPG,Pennsylvania Turnpike Harrison City Maintenance Facility,Irwin,PA,E,40.36486,-79.6782,Private - Government only,695
ELEC,Springfield - Chamber of Commerce,Springfield,OR,E,44.045409,-123.023556,Public,696
CNG,Kings County Yard,Hanford,CA,E,36.3013443,-119.654762,Private - Government only,697
LPG,Ferrellgas,Robinson,TX,E,31.492626,-97.124207,Public - Call ahead,698
BD,Fort Sill,Fort Sill,OK,E,34.678808000000004,-98.426439,Private,699
ELEC,South Mountain Community College,Phoenix,AZ,E,33.382744,-112.03443999999999,Public,700
ELEC,VALLEY MED CTR,Renton,WA,E,47.4424896,-122.2139192,Public,701
ELEC,BAYER,KCMO,MO,E,39.1242326,-94.47621140000001,Public,702
E85,Short Stop Quick Mart - Tesoro,Sauk Rapids,MN,E,45.582851,-94.066058,Public - Credit card after hours,703
ELEC,Alexandria Real Estate - Owens St Parking Garage,San Francisco,CA,E,37.767288,-122.3947369,Private,704
ELEC,Lithia Nissan of Fresno,Fresno,CA,E,36.818514,-119.78947099999999,Private,705
E85,Citgo - Bittersweet Bell-Mart,Mishawaka,IN,E,41.6849257,-86.10955940000001,Public,706
LPG,Combined Energy Services,Monticello,NY,E,41.65146729999999,-74.67318220000001,Public,707
ELEC,James River Air Conditioning,Richmond,VA,E,37.578536,-77.48754,Public,708
ELEC,Viva Nissan,El Paso,TX,E,31.724949,-106.300771,Public - Call ahead,709
E85,Boondocks,Arnolds Park,IA,E,43.370669899999996,-95.1256002,Public - Credit card after hours,710
CNG,Waste Management - Cocoa Hauling,Cocoa,FL,P,28.358601,-80.778139,PLANNED - not yet accessible (Private),711
ELEC,CARCHARGING,Washington,DC,E,38.903243700000004,-77.0414326,Public,712
LPG,Gas Production Co Inc,Vestaburg,MI,E,43.408270200000004,-84.92588769999998,Public,713
ELEC,Zion National Park - Kolob Canyons Visitor Center,New Harmony,UT,E,37.45342279999999,-113.2253413,Public,714
LPG,U-Haul,Hagerstown,MD,E,39.68898,-77.734904,Public,715
ELEC,McGavock Nissan Abilene,Abilene,TX,E,32.408654,-99.771637,Public - Call ahead,716
ELEC,Severn Building,College Park,MD,E,38.9980404,-76.9199156,Public,717
E85,Farmers Union Supply Co - Cenex C-Store,Beatrice,NE,E,40.2820777,-96.7467165,Public - Credit card after hours,718
ELEC,City of Colton - Fiesta Village Family Fun Park,Colton,CA,P,34.048855100000004,-117.3041217,PLANNED - not yet accessible (Public),719
ELEC,City of Seattle - Seattle Water Ops,Seattle,WA,E,47.579491,-122.32135749999999,Private,720
ELEC,Johnson & Johnson Headquarters,New Brunswick,NJ,E,40.499537,-74.441643,Public - Card key at all times,721
ELEC,Sheehy Nissan of Mechanicsville,Mechanicsville,VA,E,37.6131927,-77.3355689,Public - Call ahead,722
CNG,Picatinny Arsenal,Picatinny Arsenal,NJ,E,40.941431,-74.570419,Private - Government only,723
BD,Propel Fuels - Shell,Elk Grove,CA,E,38.4240691,-121.3907558,Public - Credit card at all times,724
E85,Pacific Pride - Interstate Oil Co,Sacramento,CA,E,38.5361342,-121.4034872,Public - Card key at all times,725
ELEC,LEXCHARGE01,Lexington,NE,E,40.779428700000004,-99.7370647,Public,726
ELEC,FUTURE O FLIGHT,Mukilteo,WA,E,47.921924600000004,-122.28936770000001,Public,727
ELEC,Melvin Mark - Watertower,Portland,OR,E,45.484618,-122.67665500000001,Public,728
ELEC,SMCCD,San Mateo,CA,E,37.5350511,-122.335123,Public,729
ELEC,John Howard Nissan,Morgantown,WV,E,39.6454419,-79.9261232,Private,730
E85,Fuel 24,Taylorville,IL,E,39.5618239,-89.30693659999999,Public - Credit card after hours,731
ELEC,PARKMERCED,San Francisco,CA,E,37.7151871,-122.47278590000002,Public,732
ELEC,Cutrubus Mitsubishi,Layton,UT,E,41.08559,-111.99799999999999,Public - Call ahead,733
ELEC,Rosen Nissan of Gurnee,Gurnee,IL,E,42.386763,-87.975497,Public - Call ahead,734
ELEC,Universal City Hilton,Universal City,CA,E,34.140601399999994,-118.3518,Public,735
LPG,U-Haul,Phoenix,AZ,E,33.573288,-112.099354,Public,736
LPG,Cooke Rentals,Mount Airy,NC,E,36.519212100000004,-80.6199255,Public,737
ELEC,NRG eVgo - Cracker Barrel Freedom Station,Kingwood,TX,E,30.067059999999998,-95.24708000000001,Public - Card key at all times,738
LPG,Titan Propane,Monett,MO,E,36.92797,-93.9002,Public - Call ahead,739
ELEC,TOWN OF BABYLON,Lindenhurst,NY,E,40.704099600000006,-73.3746956,Public,740
CNG,Waste Management - WI Franklin,Franklin,WI,E,42.851268100000006,-87.9524668,Private,741
ELEC,Firkins Nissan,Bradenton,FL,E,27.461855,-82.577737,Public - Call ahead,742
ELEC,Gilroy Nissan-Hyundai,Gilroy,CA,E,36.9967619,-121.558621,Public - Call ahead,743
ELEC,DDOT,Washington,DC,E,38.9174423,-77.0320892,Public,744
BD,Federal Correctional Institution - Yankton,Yankton,SD,E,42.8799561,-97.3919256,Private,745
ELEC,Greater Hartford Transit District - Spruce Street Lot,Hartford,CT,E,41.7678481,-72.6815113,Public,746
ELEC,T&C,Palo Alto,CA,E,37.438497600000005,-122.1573751,Public,747
E85,Speedway #8594,Sylvania,OH,E,41.69045910000001,-83.7039135,Public,748
ELEC,Garber Nissan,Saginaw,MI,E,43.487787100000006,-83.9743457,Public - Call ahead,749
LPG,U-Haul,Lemon Grove,CA,E,32.724417700000004,-117.0396899,Public,750
ELEC,BEVERLY HILLS,Beverly Hills,CA,E,34.068905799999996,-118.39778500000001,Public,751
LPG,Blossman Gas Inc,Cedartown,GA,E,34.0055823,-85.1457306,Public - Call ahead,752
LPG,Grapevine Colleyville Independent School District,Grapevine,TX,E,32.9193738,-97.11397690000001,Private,753
LPG,Suburban Propane,Remington,IN,E,40.76554,-87.166685,Public,754
ELEC,Santa Clara City Library DCFC,Santa Clara,CA,E,37.34062,-121.97321399999998,Public,755
BD,CFN - Central Petroleum,Bend,OR,E,44.057446399999996,-121.30630990000002,Public - Card key at all times,756
CNG,Washington Metropolitan Area Transit Authority (WMATA) - Shepherd Parkway Bus Facility,Washington,DC,P,38.84068320000001,-77.00265920000001,PLANNED - not yet accessible (Private - Government only),757
ELEC,ROCHESTER NY,Rochester,NY,E,43.15865,-77.59956940000002,Public,758
ELEC,CRESCENT LOT,Glen Ellyn,IL,E,41.876296999999994,-88.06739040000001,Public,759
ELEC,Kwik Trip #806,Owatonna,MN,E,44.0898739,-93.2187886,Public,760
LPG,INDOT - Shelbyville Maintenance Unit,Shelbyville,IN,E,39.548206,-85.771863,Private,761
E85,DJ's Travel Center,Huron,SD,E,44.368738799999996,-98.1742203,Public - Credit card after hours,762
ELEC,Bayview Thriftway,Olympia,WA,E,47.044919,-122.907576,Public,763
E85,Spinx #350,North Charleston,SC,E,32.9203439,-80.03018999999998,Public,764
ELEC,865 EV JHANCOCK,LA,CA,E,34.04665,-118.26287679999999,Public,765
ELEC,O'Hare Airport - Short Term Parking,Chicago,IL,E,41.9812852,-87.8851447,Public,766
ELEC,Stewart's Shops,Altamont ,NY,E,42.7079234,-73.9228476,Public,767
E85,National Electric Service Public Utility,Nashville,TN,E,36.159379,-86.790645,Private,768
HY,Los Angeles - Beverly Blvd - APCI CEC Award,Los Angeles,CA,P,34.076374,-118.35869199999999,PLANNED - not yet accessible (Public),769
LPG,Empiregas,Hazard,KY,E,37.39283,-83.2742,Public - Call ahead,770
ELEC,Gresham - City Hall,Gresham,OR,E,45.506803999999995,-122.436103,Public,771
CNG,Love's Travel Stop #218,Guthrie,OK,E,35.8797463,-97.4567078,Public,772
CNG,Montgomery County Transit,Derwood,MD,E,39.1235656,-77.16165140000001,Private,773
ELEC,MERITAGE1,Napa,CA,E,38.2463102,-122.2735862,Public,774
LPG,Ferrellgas,Grand Rapids,MN,E,47.235802899999996,-93.55633940000001,Public,775
ELEC,Providence - Colby Campus,Everett,WA,E,47.999006,-122.205272,Public,776
CNG,Clean Energy - Los Angeles County Metropolitan Transportation Authority - Division 3,Los Angeles,CA,E,34.0876763,-118.22386850000001,Private,777
ELEC,Kwik Trip #270,Kaukauna,WI,E,44.283055,-88.26578,Public,778
E85,Kwik Trip #224,Duluth,MN,E,46.76070670000001,-92.1313183,Public,779
LPG,Flying J,Odessa,TX,E,31.716992600000005,-102.3494225,Public,780
ELEC,WHIRLPOOL,Benton Harbor,MI,E,42.112554700000004,-86.46821949999999,Public,781
LPG,American Auto Wash Southfield,Southfield,MI,E,42.4587469,-83.22327279999998,Public,782
BD,Pacific Pride,Portland,OR,E,45.5446861,-122.71119499999999,Public - Card key at all times,783
LPG,McCraw Oil and Propane,Antlers,OK,E,34.232082399999996,-95.60648420000001,Public - Call ahead,784
E85,Propel Fuels - Chevron,Oakland,CA,E,37.809238,-122.25566200000002,Public - Credit card at all times,785
ELEC,Paul Miller Ford,Lexington,KY,E,38.0401621,-84.4542985,Public,786
E85,Kum & Go #846,Locust Grove,OK,E,36.1896841,-95.1606946,Public,787
ELEC,McGavock Nissan,Lubbock,TX,E,33.531797999999995,-101.91503,Public - Call ahead,788
E85,Kwik Trip #753,Eyota,MN,E,43.997706,-92.24767,Public,789
ELEC,Spinx,Columbia,SC,E,34.042305999999996,-80.93906,Public - Credit card at all times,790
CNG,University of Northwestern Ohio,Lima,OH,E,40.764088,-84.1563089,Private,791
ELEC,PRESTON BMW,Youngstown,OH,E,41.011269,-80.663735,Public,792
ELEC,Enterprise Rent-A-Car,Franklin,TN,E,35.956234,-86.827326,Private,793
LPG,Flying J Travel Plaza 685,Fargo,ND,E,46.83371289999999,-96.8458188,Public,794
E85,Kum & Go #658,Colorado Springs,CO,E,38.8944685,-104.71386820000001,Public,795
E85,Kwik Trip #455,Ladysmith,WI,E,45.4641585,-91.1111437,Public,796
CNG,Clean Energy - PS Energy - East Point,East Point,GA,E,33.6944411,-84.41829670000001,Public - Credit card at all times,797
E85,Road Ranger #237,Lombard,IL,E,41.860475,-87.994817,Public,798
LPG,P & D Petroleum,Lovington,NM,E,32.990174800000005,-103.3174877,Public,799
ELEC,South Carolina Electric Co-op,Cayce,SC,E,33.982843100000004,-81.061524,Public,800
ELEC,STATION1,Marana,AZ,E,34.0808966,-111.0735581,Public,801
LPG,AmeriGas,Palatine,IL,E,42.100654999999996,-88.038235,Public,802
ELEC,CITY OF SEATAC,SeaTac,WA,E,47.4338361,-122.27260430000001,Public,803
ELEC,"Walgreens - Bel Air, MD #11999",Bel Air,MD,E,39.5019452,-76.3265292,Public - Card key at all times,804
CNG,Elk Grove School District,Sacramento,CA,E,38.4817493,-121.39217020000001,Private,805
ELEC,Southpark Garage - NPM,Portland,OR,E,45.518463,-122.682247,Public,806
LPG,Mission 76,Hayward,CA,E,37.63477,-122.05188700000001,Public - Call ahead,807
LPG,Geldbach Petroleum Co,Valley Park,MO,E,38.553289899999996,-90.489053,Public - Call ahead,808
ELEC,Main Street Video,Le Sueur,MN,E,44.461496200000006,-93.91538809999999,Public - Call ahead,809
LNG,Clean Energy - Shreveport Flying J #665,Greenwood,LA,P,32.444757300000006,-93.9785106,PLANNED - not yet accessible (Public - Credit card at all times),810
LPG,V-1 Propane,Worland,WY,E,44.024173,-107.9558928,Public,811
ELEC,Ramsey Nissan,Upper Saddle River,NJ,E,41.053468,-74.12018499999999,Public - Call ahead,812
E85,Qik-n-EZ #60,Normal,IL,E,40.50321599999999,-88.954796,Public,813
ELEC,City of Colton - Arrowhead Regional Medical Center,Colton,CA,P,34.0740156,-117.351125,PLANNED - not yet accessible (Public),814
ELEC,Weseloh Nissan,San Juan Capistrano,CA,E,33.4747119,-117.676201,Private,815
ELEC,GEORGIA STATE,Atlanta,GA,E,33.75338729999999,-84.3838186,Public,816
BD,Vance Air Force Base,Enid,OK,E,36.339742,-97.916156,Private - Government only,817
ELEC,Hall Nissan - Virginia Beach,Virginia Beach,VA,E,36.838989,-76.10243299999999,Private,818
ELEC,Macy's #71-555 - Otay Ranch Town Center - Chula Vista CA,Chula Vista,CA,E,32.621809999999996,-116.9658995,Public,819
LPG,Ferrellgas,Perryville,AR,E,35.013566,-92.79828,Public,820
ELEC,MOLLIE STONES,Palo Alto,CA,E,37.428710200000005,-122.14315649999999,Public,821
E85,Super Pantry #52,Champaign,IL,E,40.131707,-88.25837299999998,Public,822
ELEC,Purdue University,West Lafayette,IN,E,40.427761700000005,-86.91626070000001,Public,823
CNG,Trillium CNG - Honda Parkway,Marysville,OH,E,40.278754,-83.508379,Private,824
E85,Evergreen FS Farmtown,Bloomington,IL,E,40.4544416,-88.96805119999998,Public,825
LPG,INDOT - Martinsville Maintenance Unit,Martinsville,IN,E,39.3946172,-86.3738635,Private,826
ELEC,WALNUT CREEK,Walnut Creek,CA,E,37.900982899999995,-122.06128490000002,Public,827
ELEC,VEIC,Burlington,VT,E,44.4617544,-73.21784749999999,Public,828
ELEC,NATIONAL GRID,West Bridgewater,MA,E,42.0120049,-71.0499115,Public,829
ELEC,El Paso Int'l Airport- Short-Term Parking,El Paso,TX,E,31.798056,-106.39474399999999,Public,830
E85,Thorntons #400,Greenwood,IN,E,39.5938771,-86.1032537,Public,831
LNG,Blu LNG - Blu Fuel Stop,Sumner,WA,E,47.236945,-122.24979599999999,Public - Credit card at all times,832
ELEC,Clear Lake Nissan,League City,TX,E,29.485334,-95.10186999999999,Public - Call ahead,833
ELEC,Boucher Nissan - Waukesha,Waukesha,WI,E,43.024353000000005,-88.20645999999999,Public - Call ahead,834
ELEC,HP PALO ALTO,Palo Alto,CA,E,37.41202620000001,-122.1464912,Public,835
LPG,Arundel Gas and Water Conditioning,Edgewater,MD,E,38.933916,-76.56640800000002,Public,836
E85,Alabama State Motor Pool,Montgomery,AL,E,32.372589000000005,-86.298802,Private - Government only,837
ELEC,Ground Round Grill & Bar - Tesla,Worthington,MN,E,43.634433,-95.595456,Public,838
ELEC,BORGESS HEALTH,Kalamazoo,MI,E,42.3077489,-85.56174809999999,Public,839
ELEC,Rivers Casino,Des Plaines,IL,E,41.99908129999999,-87.86417840000001,Private,840
LPG,Ferrellgas,San Antonio,TX,E,29.694290000000002,-98.45297099999999,Public,841
E85,Cenex - Heart of Iowa Co-op,Story City,IA,E,42.18877,-93.600452,Public - Credit card at all times,842
E85,Speedway #5064,Kettering,OH,E,39.70427,-84.16194,Public,843
CNG,Waste Management - San Tan Hauling,Mesa,AZ,E,33.3420615,-111.664201,Private,844
ELEC,CARCHARGING,New York,NY,E,40.78921810000001,-73.9749593,Public,845
ELEC,CITYOF MUSKEGON,Muskegon,MI,E,43.233547200000004,-86.25547790000002,Public,846
ELEC,Ann Arbor DDA - Maynard Parking Structure,Ann Arbor,MI,E,42.278678,-83.742637,Public,847
ELEC,EAST HAMPTON TH,East Hampton,NY,E,40.969100399999995,-72.17237440000001,Public,848
ELEC,AFP EV CHARGERS,San Jose,CA,E,37.333419299999996,-121.89528200000001,Public,849
LPG,U-Haul,Houston,TX,E,29.669840999999998,-95.43366540000001,Public,850
BD,Maxwell Air Force Base,Montgomery,AL,E,32.373971999999995,-86.3516683,Private - Government only,851
CNG,San Diego Marine Corps Recruit Depot,San Diego,CA,E,32.74065,-117.18700000000001,Private,852
LPG,West Plains Propane Inc,West Plains,MO,E,36.7321594,-91.8549288,Public,853
LPG,U-Haul,Richmond,VA,E,37.451137,-77.4423939,Public,854
LPG,Suburban Propane,Elko,NV,T,40.8386985,-115.7534301,TEMPORARILY UNAVAILABLE (Public - Call ahead),855
E85,Jay's Garage,Portland,OR,E,45.5175188,-122.65832069999999,Public,856
ELEC,Joel D Valdez Library,Tucson,AZ,E,32.224307,-110.972385,Public,857
ELEC,BMW CHARGERS,Santa Barbara,CA,E,34.4340975,-119.74608400000001,Public,858
ELEC,UMD COLLEGEPARK,College Park,MD,E,38.9822044,-76.9461288,Public,859
ELEC,Giles Nissan,Lafayette,LA,E,30.16416,-92.081478,Private,860
E85,Federal Correctional Complex - Pollock,Pollack,LA,E,31.465159399999997,-92.4328533,Private,861
ELEC,Publix,Fort Lauderdale,FL,E,26.1142359,-80.14381800000001,Public,862
ELEC,Tischer Nissan,Laurel,MD,E,39.1010445,-76.82167109999999,Public - Call ahead,863
LPG,U-Haul,Harrisburg,PA,E,40.3204805,-76.79167009999999,Public,864
E85,Break Time Convenience Store #3123,Springfield,MO,E,37.196895,-93.27578,Public,865
ELEC,McFarland Ford,Exeter,NH,E,42.991245500000005,-70.927825,Private,866
E85,Get N Go #20,Sioux Falls,SD,E,43.5224463,-96.73147390000001,Public,867
ELEC,Asheville Chevrolet,Asheville,NC,E,35.563115,-82.630535,Private,868
E85,PS Energy - UFO,Atlanta,GA,E,33.7459268,-84.3987638,Private - Fleet customers only,869
ELEC,McCarthy Olathe Nissan,Olathe,KS,E,38.890301,-94.791102,Public - Call ahead,870
E85,Big Stone Co-op - Cenex,Milbank,SD,E,45.21859569999999,-96.6267819,Public - Credit card after hours,871
ELEC,"Walgreens - Vancouver, WA #6103",Vancouver,WA,E,45.60718920000001,-122.50389109999999,Public - Card key at all times,872
ELEC,NRG eVgo - Westminster Mall,Westminster,CA,E,33.747823,-118.011187,Public - Card key at all times,873
LPG,U-Haul,East Ridge,TN,E,34.9902738,-85.2191888,Public,874
ELEC,Ken Garff Nissan of Orem,Orem,UT,E,40.2734797,-111.7017287,Public - Call ahead,875
ELEC,Nissan Village of North Attleboro,North Attleboro,MA,E,41.959864,-71.342487,Private,876
ELEC,Bowser Nissan,Pleasant Hills,PA,E,40.3206503,-79.9418146,Private,877
BD,Pictured Rocks National Lakeshore,Grand Marais,MI,E,46.668324,-85.998166,Private - Government only,878
ELEC,CARCHARGING,Bloomington,MN,E,44.8532985,-93.24423370000001,Public,879
LPG,Menards,Joliet,IL,E,41.522031,-88.144059,Public,880
ELEC,Clif Family Winery,St. Helena,CA,E,38.5002635,-122.46315870000001,Private,881
LPG,U-Haul,Tucson,AZ,E,32.19255,-110.85736100000001,Public,882
ELEC,Florida Power & Light - Brevard Service Center,Melbourne,FL,E,28.09556,-80.68883000000001,Private,883
ELEC,AutoNation Nissan Southwest,Littleton,CO,E,39.627159999999996,-105.089743,Private,884
ELEC,Cinemark West Plano - Dallas Parkway - Plano TX,Plano,TX,E,33.048561,-96.82902,Public,885
E85,Shell,Homewood,IL,E,41.56385529999999,-87.63617149999997,Public,886
ELEC,Gettel Nissan of Sarasota,Sarasota,FL,E,27.298292,-82.499125,Private,887
LPG,Bay Gas Service,Shirley,NY,E,40.8029402,-72.8676167,Public,888
E85,H-E-B #109,Houston,TX,E,29.7866391,-95.531909,Public - Credit card after hours,889
ELEC,South Potomac Dahlgren,Dahlgren,VA,E,38.326011,-77.033055,Private,890
ELEC,Colorado Mountain College - Steamboat Springs,Steamboat Springs,CO,E,40.4920518,-106.8409957,Public,891
ELEC,Eaton Corp,Auburn,WA,E,47.295427000000004,-122.2517995,Public,892
CNG,Barnes Inc - US Oil,Madison,WI,P,43.002908000000005,-89.49090699999998,PLANNED - not yet accessible (Public),893
CNG,Whittier Union High School District,Whittier,CA,E,33.9549251,-118.0448145,Public - Credit card at all times,894
ELEC,350GREEN,Baltimore,MD,E,39.3270035,-76.6816483,Public,895
ELEC,Gilroy Nissan-Hyundai,Gilroy,CA,E,36.9967619,-121.558621,Private,896
ELEC,"Walgreens - Shoreline, WA #9373",Shoreline,WA,E,47.756603000000005,-122.34523100000001,Public - Card key at all times,897
BD,University of Michigan,Ann Arbor,MI,E,42.297261799999994,-83.7015238,Private,898
ELEC,HAUKE PARK,Mill Valley,CA,E,37.897116700000005,-122.52271680000001,Public,899
LPG,City of Los Angeles - Central Los Angeles Recycling and Transfer Station,Los Angeles,CA,E,34.020252500000005,-118.2344449,Private - Government only,900
LPG,Williams Wesco Inc,Gibsonia,PA,E,40.6166614,-79.9461767,Public,901
BD,Goodfellow Air Force Base,Goodfellow AFB,TX,E,31.4345622,-100.4129099,Private - Government only,902
ELEC,IRVINE CO OFC,Irvine,CA,E,33.650741,-117.7477926,Public,903
ELEC,Hyatt Regency Denver,Denver,CO,E,39.7439318,-104.992985,Public,904
LPG,Expo Propane,San Diego,CA,E,32.8362155,-117.138434,Public - Card key after hours,905
LPG,U-Haul,Houston,TX,E,29.845191999999997,-95.393375,Public,906
ELEC,City of Seattle - Parking Enforcement Division ,Seattle,WA,E,47.5829787,-122.3232312,Private,907
ELEC,BMW OF ROCHESTE,Shelby Charter Township,MI,E,42.6281331,-83.09024840000001,Public,908
ELEC,SALVADOR DALI,St Petersburg,FL,E,27.765971,-82.63139090000001,Public,909
ELEC,CITY OF LOWELL,Lowell,MI,E,42.9334908,-85.3407593,Public,910
CNG,Questar Gas - Kemmerer,Kemmerer,WY,E,41.782092299999995,-110.53729569999999,Private - Fleet customers only,911
ELEC,2404 Heritage Court SW,Olympia,WA,E,47.027590999999994,-122.92059099999999,Public,912
ELEC,San Diego State University - Parking Structure 6,San Diego,CA,E,32.77277,-117.06701100000001,Public,913
ELEC,KOHL'S,Kyle,TX,E,30.012056400000002,-97.8649063,Public,914
E85,Cenex - Agland,Greeley,CO,E,40.396724600000006,-104.7355134,Public - Credit card after hours,915
E85,Cenex C-Store,Montevideo,MN,E,44.9494672,-95.6447119,Public - Credit card after hours,916
ELEC,Smolich Nissan,Bend,OR,E,44.055386,-121.27763999999999,Public - Call ahead,917
LPG,Suburban Propane,Pocatello,ID,E,42.8890249,-112.472927,Public,918
ELEC,McDonald's - Hendersonville TN,Hendersonville,TN,E,36.326053,-86.595298,Public,919
ELEC,Town North Nissan,Austin,TX,E,30.3742325,-97.7324449,Private,920
E85,Meijer Gas #134,Indianapolis,IN,E,39.66592139999999,-86.08016529999998,Public,921
LPG,Thomas Gas Co,Concord,NC,E,35.3790229,-80.574236,Public - Call ahead,922
E85,Kum & Go #313,Thornton,CO,E,39.912890000000004,-104.92261,Public,923
BD,City of Chula Vista - Fire Station #2,Chula Vista,CA,E,32.6315483,-117.0589242,Private - Government only,924
ELEC,BEVERLY HILLS,Beverly Hills,CA,E,34.071975200000004,-118.4004986,Public,925
ELEC,Bloomfield Town Hall,Bloomfield,CT,E,41.8298475,-72.7373929,Public,926
ELEC,Maritime Plaza,Washington,DC,E,38.875849,-76.989356,Private,927
ELEC,Bob Johnson Nissan,Rochester,NY,E,43.2152094,-77.7348627,Public - Call ahead,928
LPG,INDOT - Waterloo Maintenance Unit,Waterloo,IN,E,41.43838,-85.03664300000001,Private,929
ELEC,VA1,Northampton,MA,E,42.348270899999996,-72.6884113,Public,930
E85,Thorntons #612,Murfreesboro,TN,E,35.8670754,-86.4535626,Public,931
E85,National Renewable Energy Laboratory - Denver West,Golden,CO,E,39.738656,-105.17538,Private - Fleet customers only,932
CNG,Alagasco Montgomery Operations Center,Montgomery,AL,E,32.367909999999995,-86.26701899999998,Private,933
E85,Road Ranger,Carpentersville,IL,E,42.124239700000004,-88.33490859999998,Public,934
ELEC,Whole Foods Market,Danbury,CT,E,41.378259,-73.474835,Public,935
ELEC,BMW,Greer,SC,E,34.9051219,-82.17878929999999,Public,936
ELEC,DUKE ENERGY,Charlotte,NC,E,35.2250595,-80.8490372,Public,937
BD,Star Oilco - SeQuential Biofuels,Portland,OR,E,45.595578100000004,-122.6632889,Public,938
ELEC,Currie Maintenance Facility,Minneapolis,MN,E,44.97804,-93.28200000000001,Private,939
E85,RaceTrac #2339,Allen,TX,E,33.115333,-96.6826691,Public,940
CNG,Marine Corps Logistics Base - Barstow - Nebo Annex,Barstow,CA,E,34.862189,-117.048075,Private - Government only,941
E85,Bosselman's Pump & Pantry #27,Kearney,NE,E,40.716967,-99.0838141,Public,942
E85,Hometown Express #2,Galva,IL,E,41.1642231,-90.04226729999998,Public,943
CNG,Town of Garner,Garner,NC,E,35.698568200000004,-78.60437420000001,Private - Government only,944
ELEC,Trillium CNG - Yolo County Transportation District,Woodland,CA,E,38.678131,-121.75343259999998,Public,945
CNG,Waste Management - Trenton Hauling,Hamilton Township,NJ,E,40.2119286,-74.7164195,Private,946
E85,Speedway #9511,Louisville,KY,E,38.145083,-85.872293,Public,947
LPG,Revere Gas,Warsaw,VA,E,37.9493366,-76.6985832,Public,948
ELEC,UTEP Schuster Parking Garage,El Paso,TX,E,31.766527000000004,-106.50133600000001,Public,949
ELEC,Waikoloa Marriott,Waikoloa Village,HI,E,19.916631,-155.884755,Public,950
ELEC,Ocala Nissan,Ocala,FL,E,29.171608000000003,-82.161506,Private,951
HY,UC - Irvine,Irvine,CA,E,33.665494,-117.85388200000001,Public - Call ahead,952
ELEC,Central Parking - Beam Charging,New York,NY,E,40.76447,-73.96253100000001,Public,953
ELEC,Clay Nissan,Norwood,MA,E,42.1930417,-71.1836672,Public - Call ahead,954
LPG,U-Haul,Shreveport,LA,E,32.456447,-93.77576859999999,Public,955
ELEC,Altamonte Mall,Altamonte Springs,FL,E,28.6675,-81.3784,Public,956
ELEC,NATIONAL GRID,Providence,RI,E,41.827166,-71.3986979,Public,957
ELEC,I-64 West Rest Stop,New Kent,VA,E,37.498704,-77.04348,Public,958
ELEC,NRG eVgo - Walgreens Freedom Station,Houston,TX,E,29.6015,-95.24761,Public - Card key at all times,959
ELEC,Arapahoe Parking Lot,West Hartford,CT,E,41.758508899999995,-72.7445332,Public,960
ELEC,Microsoft,Redmond,WA,E,47.64506149,-122.137619,Private,961
CNG,Leon County School District,Tallahassee,FL,E,30.439992600000004,-84.21364820000001,Private,962
CNG,Sevier County Utility District,Sevierville,TN,E,35.869431,-83.54023740000001,Private,963
LPG,McCraw Oil and Propane,Hugo,OK,E,34.0053169,-95.51405129999999,Public - Call ahead,964
ELEC,Pomoco Nissan of Hampton,Hampton,VA,E,37.042266399999995,-76.3885183,Public - Call ahead,965
E85,Holiday Stationstore #259,Coon Rapids,MN,E,45.152999,-93.272216,Public,966
HY,Humboldt State,Arcata,CA,E,40.872954,-124.07946799999999,Private,967
ELEC,Nissan of Columbus,Columbus,OH,E,40.140425,-83.017969,Public - Call ahead,968
LPG,Cleburne Propane,Glen Rose,TX,E,32.2077312,-97.74810670000001,Public,969
ELEC,Cookeville Nissan,Cookeville,TN,E,36.137042,-85.4965689,Private,970
ELEC,HYDRO PARK,Kaukauna,WI,E,44.2771348,-88.26995759999998,Public,971
ELEC,Hutton Hotel,Nashville,TN,E,36.153202,-86.797624,Public,972
LPG,Sayle LP Gas,Pope,MS,E,34.211172,-89.939661,Public - Call ahead,973
ELEC,Ventura County Medical Center,Ventura,CA,E,34.277113299999996,-119.2524506,Public,974
LPG,Ravenel Ace Hardware,Ravenel,SC,E,32.776990000000005,-80.247617,Public,975
LPG,Welchgas,Mount Pleasant,TX,E,33.181509999999996,-94.9297,Public,976
ELEC,Campbell-Nelson Nissan,Edmonds,WA,E,47.7796657,-122.3460124,Private,977
ELEC,NASHVILLE MTA,Madison,TN,E,36.275174299999996,-86.6906571,Public,978
E85,State of Michigan - Vehicle & Travel Services Fuel Station,Dimondale,MI,E,42.655503,-84.52891899999999,Private - Government only,979
ELEC,M'Lady Nissan,Crystal Lake,IL,E,42.227158,-88.306715,Public - Call ahead,980
ELEC,Long Beach Fleet Services,Long Beach,CA,E,33.8051951,-118.1585314,Private,981
ELEC,SIERRA NEVADA,Chico,CA,E,39.7242546,-121.81385039999999,Public,982
ELEC,JNS,Buffalo Grove,IL,E,42.1541352,-87.96175,Public,983
BD,Glover Oil,Melbourne,FL,E,28.0627351,-80.59873470000001,Public,984
CNG,New York State Department of Transportation,East Rochester,NY,E,43.11900900000001,-77.4892653,Private - Government only,985
ELEC,Florida Power & Light - Martin Plant,Indiantown,FL,E,27.077680800000003,-80.55457159999999,Private,986
LPG,Thomas Propane,De Leon,TX,E,32.1220044,-98.5492974,Public - Call ahead,987
ELEC,North Bay Nissan,Petaluma,CA,E,38.2671451,-122.66517590000001,Private,988
ELEC,PLUGNEVERYWHERE,Austin,TX,E,30.4033994,-97.7050844,Public,989
ELEC,Kohl's Store #556 Pearland,Pearland,TX,E,29.554477000000002,-95.38087900000001,Public,990
E85,Han Dee Mart,Caseyville,IL,E,38.640741999999996,-90.02123399999999,Public,991
ELEC,Kum & Go #408,Bentonville,AR,E,36.3803697,-94.17778520000002,Public,992
E85,Kum & Go #409,Fayetteville,AR,E,36.09515,-94.1526953,Public,993
LPG,U-Haul,Gettysburg,PA,E,39.8386004,-77.2114274,Public,994
ELEC,BRIGHTFIELDTS,Asheville,NC,E,35.601437,-82.621718,Public,995
ELEC,Kaiser Honolulu Clinic,Honolulu,HI,E,21.301098,-157.846151,Public,996
E85,Conrad & Bischoff Inc,Idaho Falls,ID,E,43.516825,-112.024745,Public - Credit card at all times,997
CNG,Clean Energy - CleanScapes Seattle,Seattle,WA,E,47.536836,-122.32406100000001,Private,998
E85,Thorntons QuickCafe & Market,Smyrna,TN,E,35.995441299999996,-86.5118834,Public,999
ELEC,Bob Howard Nissan,Oklahoma City,OK,E,35.60407,-97.498272,Public - Call ahead,1000
ELEC,SUSTAINABLEFOOD,Austin,TX,E,30.278543,-97.7100801,Public,1001
E85,Plymouth VIP Minnoco,Plymouth,MN,E,45.03392969999999,-93.406595,Public,1002
LPG,Propane of Wendover,West Wendover,NV,E,40.732594,-114.07561299999999,Public,1003
ELEC,KOHL'S,Downers Grove,IL,E,41.8361992,-88.0262566,Public,1004
ELEC,City of Manhattan Beach - City Hall Garage,Manhattan Beach,CA,E,33.8870094,-118.4107196,Public,1005
LPG,U-Haul,Sacramento,CA,E,38.49521970000001,-121.4710937,Public,1006
ELEC,Courtyard Marriott,Rye,NY,E,40.9893605,-73.6721218,Public - Call ahead,1007
LPG,AmeriGas,Lebanon,TN,E,36.211636999999996,-86.269885,Public - Call ahead,1008
ELEC,Cracker Barrel 23 Nashville,Nashville,TN,E,36.153659999999995,-86.626548,Public,1009
ELEC,WHOLE FOODS MKT,San Antonio,TX,E,29.6134256,-98.5107788,Public,1010
E85,Kroger Fuel Center #518,Mansfield,OH,E,40.7610027,-82.56099329999998,Public,1011
CNG,AMP Trillium,Sturtevant,WI,E,42.723965899999996,-87.95564470000001,Public - Credit card at all times,1012
ELEC,OV CAR CHARGER,Thousand Oaks,CA,E,34.22846320000001,-118.8822095,Public,1013
BD,Yellowstone National Park - East Entrance,Yellowstone National Park,WY,E,44.488995,-110.005342,Private,1014
E85,Sparky's One Stop,Rockwell City,IA,E,42.4534136,-94.6694015,Public,1015
BD,Triangle Biofuels Industries,Wilson,NC,E,35.702584,-77.91733,Public,1016
ELEC,Cargill Chevrolet,Putnam,CT,E,41.9155765,-71.90831329999999,Public,1017
ELEC,ACE PKG - 875 HOWARD GRG,San Francisco,CA,E,37.7819286,-122.4041764,Public - Card key at all times,1018
LPG,Perry Propane & Appliance,Nacogdoches,TX,E,31.66595,-94.6723358,Public,1019
ELEC,FENWICK & WEST,Mountain View,CA,E,37.391014,-122.081313,Public,1020
ELEC,PLUGNEVERYWHERE,Austin,TX,E,30.259881,-97.7527437,Public,1021
LPG,Wayne's Automotive Center,Aiken,SC,E,33.5647591,-81.74611809999998,Public,1022
ELEC,NRG eVgo - Nissan South Union City,Union City,GA,E,33.564587700000004,-84.5217895,Public - Card key at all times,1023
ELEC,SAN LEANDRO,San Leandro,CA,E,37.725619099999996,-122.15558829999999,Public,1024
ELEC,McGavok Group Partners Corporate Office,Nashville,TN,E,36.155572,-86.78573399999999,Public,1025
CNG,CHS Inc,Fairmont,MN,E,43.67373260000001,-94.5050493,Public - Credit card at all times,1026
ELEC,Hanlees Hilltop Nissan,Richmond,CA,E,37.983498600000004,-122.32400870000001,Public - Call ahead,1027
ELEC,INTERPARK,Chicago,IL,E,41.877275,-87.63414399999999,Public,1028
ELEC,NATIONAL GRID,Prov,RI,E,41.8305618,-71.4205005,Public,1029
E85,Stirling U-Gas,Davie,FL,T,26.046352,-80.23117490000001,TEMPORARILY UNAVAILABLE (Public),1030
ELEC,Green Rock Apartments,Minneapolis,MN,E,44.99037379999999,-93.28065649999999,Public,1031
LPG,U-Haul,Richmond,VA,E,37.577436999999996,-77.48902199999999,Public,1032
ELEC,The Mount Sinai Hospital,New York,NY,E,40.7881879,-73.95155799999998,Public,1033
CNG,GAIN Clean Fuel,Calera,AL,E,33.102329499999996,-86.75347059999999,Public - Credit card at all times,1034
ELEC,Ganley Nissan,Mayfield Heights,OH,E,41.5197581,-81.46123100000001,Private,1035
ELEC,MORRISVILLE,Morrisville,NY,E,42.896779200000005,-75.64156750000001,Public,1036
E85,26 Mile Pit Stop,Macomb,MI,E,42.715669,-82.960352,Public,1037
E85,Corner Store #4074,Commerce City,CO,E,39.798969,-104.9040854,Public,1038
LPG,Bi-State Propane - Amerigas,South Lake Tahoe,CA,E,38.915419,-120.003064,Public - Call ahead,1039
ELEC,The Lenox Building,Atlanta,GA,E,33.845744,-84.36033499999999,Public,1040
ELEC,Cracker Barrel 29 East Ridge,East Ridge,TN,E,34.990376,-85.2084,Public,1041
ELEC,Veterans Affairs Medical Center - Menlo Park,Menlo Park,CA,E,37.46545792,-122.1625,Private,1042
ELEC,OMNINET FREEWAY,Long Beach,CA,E,33.8286117,-118.2124673,Public,1043
ELEC,NATIONAL GRID,Bristol,RI,E,41.6475778,-71.25907629999999,Public,1044
LPG,U-Haul,Cayce,SC,E,33.981249700000006,-81.0636012,Public,1045
ELEC,Waldorf Ford,Waldorf,MD,E,38.6431409,-76.8928591,Public - Call ahead,1046
ELEC,McCurry Deck Chevrolet,Forest City,NC,E,35.312723999999996,-81.878918,Public,1047
LPG,Delta Liquid Energy,Santa Paula,CA,E,34.355545899999996,-119.045879,Public - Call ahead,1048
ELEC,McGavock Nissan - Amarillo,Amarillo,TX,E,35.15933,-101.94,Private,1049
ELEC,PR 790 East Colorado,Pasadena,CA,E,34.145799,-118.134166,Public,1050
ELEC,County Line Buick-Nissan,Middlebury,CT,E,41.568466,-73.099109,Private,1051
CNG,CNG 4 America - Sulphur Springs,Sulphur Springs,TX,P,33.1197284,-95.6370732,PLANNED - not yet accessible (Public),1052
ELEC,PLUGNEVERYWHERE,Austin,TX,E,30.2228031,-97.74610140000001,Public,1053
BD,University of Florida,Gainesville,FL,E,29.642861,-82.367897,Private - Government only,1054
ELEC,OURISMAN VW,Maryland City,MD,E,39.0948664,-76.79622059999998,Public,1055
ELEC,General Electric Fleet Services,Eden Prairie,MN,E,44.857465999999995,-93.4091679,Private,1056
ELEC,Mathworks Headquarters,Natick,MA,E,42.2998216,-71.3503325,Private,1057
LPG,Dandy RV KOA Campground,Clanton,AL,E,32.841175,-86.595414,Public - Call ahead,1058
LPG,United Truck Body,Hermantown,MN,E,46.8374959,-92.2301728,Private,1059
ELEC,"Walgreens - Gresham, OR #3817",Gresham,OR,E,45.4903429,-122.4752426,Public - Card key at all times,1060
ELEC,HOLLAND BPW,Holland,MI,E,42.823082,-86.094101,Public,1061
CNG,Calexico Unified School District,Calexico,CA,E,32.6788618,-115.4825665,Private,1062
ELEC,BALTIMORE CITY,Baltimore,MD,E,39.281513200000006,-76.5963593,Public,1063
ELEC,DCH Freehold Nissan,Freehold,NJ,E,40.278692,-74.294919,Public - Call ahead,1064
ELEC,PILGRIM PARKING,Cambridge,MA,E,42.36480529999999,-71.08058270000001,Public,1065
LPG,Butane Gas Co,Mountainburg,AR,E,35.619645,-94.171611,Public - Call ahead,1066
ELEC,Thousand Oaks Transportation Center - DCFC,Thousand Oaks,CA,E,34.175022,-118.86100800000001,Public,1067
LPG,Trest LP Gas Co,Lumberton,TX,E,30.249332799999998,-94.1970892,Public,1068
ELEC,HIGHWOODS,Raleigh,NC,E,35.834444,-78.689644,Public,1069
ELEC,TANGER COMMERCE,Commerce,GA,E,34.2508817,-83.47351379999999,Public,1070
ELEC,Penske Chevrolet of Cerritos,Cerritos,CA,E,33.862766,-118.10125900000001,Private,1071
ELEC,Hoffman Ford,East Hartford,CT,E,41.769701,-72.6574811,Public - Call ahead,1072
E85,Rebel Oil Co #98,Las Vegas,NV,E,36.1364532,-115.0648203,Public,1073
LPG,Ferrellgas,Loose Creek,MO,E,38.496018,-91.913454,Public - Call ahead,1074
BD,Cherry Point Marine Corps Air Station,Cherry Point,NC,E,34.896218,-76.897275,Private - Government only,1075
ELEC,KOHL'S,Vacaville,CA,E,38.3756332,-121.94757079999998,Public,1076
ELEC,Mid City Nissan,Chicago,IL,E,41.953683000000005,-87.7396481,Public - Call ahead,1077
CNG,Trillium CNG - Roaring Fork Transportation Authority,Glenwood Springs,CO,E,39.556631,-107.355461,Private,1078
ELEC,Westar Energy - Wichita General Office,Wichita,KS,E,37.686663,-97.334925,Public,1079
E85,Fowler Oil Co,Spring Valley,MN,E,43.6885364,-92.3890733,Public - Credit card after hours,1080
ELEC,Wildwedge Golf & RV Park,Pequot Lakes,MN,E,46.630373600000006,-94.3235234,Public - Call ahead,1081
ELEC,Educational Cultural Complex,San Diego,CA,E,32.699574,-117.101727,Private,1082
ELEC,City of Palm Springs - International Airport,Palm Springs,CA,E,33.8232307,-116.51177659999998,Public,1083
CNG,Jet Propulsion Laboratory,Pasadena,CA,E,34.198642,-118.17461100000001,Private,1084
BD,Jet Propulsion Lab Goldstone,Fort Irwin,CA,E,35.262442,-116.71387800000001,Private,1085
ELEC,SG Hylan Motors,Staten Island,NY,E,40.5978561,-74.08339659999999,Public - Call ahead,1086
ELEC,NATIONAL GRID,North Providence,RI,E,41.842832,-71.4678224,Public,1087
ELEC,OAKWOOD,Los Angeles,CA,E,34.0376246,-118.44094070000001,Public,1088
E85,Meijer Gas #56,Jackson,MI,E,42.255956,-84.359414,Public,1089
LPG,U-Haul,Cicero,IL,E,41.850831899999996,-87.750926,Public,1090
ELEC,Makoto's Japanese Steak House & Sushi Bar,Boone,NC,E,36.1959977,-81.6537288,Public,1091
BD,City of Phoenix,Phoenix,AZ,E,33.654762100000006,-112.07235279999999,Private,1092
ELEC,KCP&L,KCMO,MO,E,39.07890220000001,-94.598067,Public,1093
E85,State of Oklahoma,Oklahoma City,OK,E,35.4926594,-97.50727579999999,Private - Government only,1094
LPG,Heritage Propane,Lewisburg,TN,E,35.432017,-86.75963399999999,Public - Call ahead,1095
BD,Watauga County - North Carolina DOT,Boone,NC,E,36.243264,-81.65656700000001,Private - Government only,1096
E85,Bjornson Oil,Fargo,ND,E,46.8844286,-96.7986832,Public,1097
E85,G&M Chevron #12 - Pearson Fuels,El Cajon,CA,P,32.8040521,-116.95146770000001,PLANNED - not yet accessible (Public),1098
ELEC,OUC,Orlando,FL,E,28.537889500000002,-81.3788071,Public,1099
CNG,Bluewater Area Transit,Port Huron,MI,E,42.9775004,-82.44845129999999,Public - Credit card at all times,1100
ELEC,Cannon Nissan,Greenwood,MS,E,33.525183,-90.20765300000001,Public - Call ahead,1101
ELEC,San Diego State University - Parking Structure 5,San Diego,CA,E,32.773419,-117.080398,Private,1102
E85,Coral Ridge Valero,Coral Springs,FL,E,26.2869402,-80.28201709999998,Public,1103
ELEC,Doenges Ford Lincoln,Bartlesville,OK,E,36.7239436,-95.9357936,Public,1104
ELEC,DGS MAIN,Sacramento,CA,E,38.5729929,-121.499385,Public,1105
E85,Clark,Detroit,MI,E,42.38968920000001,-83.08632949999998,Public,1106
LNG,Clean Energy - LA County Sanitation District,City of Industry,CA,E,34.0271334,-118.0300623,Public - Credit card at all times,1107
LPG,Tri-Gas Distributing Company,Traverse City,MI,E,44.7380799,-85.60558499999998,Public,1108
ELEC,Dillsburg Shopping Center,Dillsburg,PA,P,40.129719,-77.019722,PLANNED - not yet accessible (Public),1109
E85,Fast Stop Express - Agriland FS,Underwood,IA,E,41.380814,-95.68200999999999,Public - Credit card at all times,1110
E85,Concord PS Food Mart,Concord,MI,E,42.1823608,-84.6449147,Public,1111
ELEC,Embassy Suites Downtown Houston,Houston,TX,E,29.752956,-95.361339,Private,1112
ELEC,Duncan Ford Lincoln,Blacksburg,VA,E,37.179806,-80.411408,Public - Call ahead,1113
ELEC,South Bay Ford,Hawthorne,CA,E,33.9008327,-118.3685055,Public - Call ahead,1114
ELEC,Southern California Edison - Monrovia Service Center,Monrovia,CA,E,34.136276,-117.993909,Private,1115
E85,Meijer Gas #117,Toledo,OH,E,41.676471,-83.71907499999998,Public,1116
ELEC,BEVERLY HILLS,Beverly Hills,CA,E,34.070879999999995,-118.402363,Public,1117
CNG,Poteau CNG,Poteau,OK,E,35.0051559,-94.6730021,Public - Credit card at all times,1118
ELEC,AFS TORRANCE,Torrance,CA,E,33.807208,-118.33929599999999,Public,1119
ELEC,Starbucks Center,Seattle,WA,E,47.581033000000005,-122.334925,Public,1120
ELEC,CARCHARGING,Fort Lauderdale,FL,E,26.1000767,-80.12494659999999,Public,1121
E85,Kwik Trip #424,Fairmont,MN,E,43.651290100000004,-94.4467235,Public,1122
E85,Speedway #7611,Octa,OH,E,39.61752449999999,-83.6053106,Public,1123
ELEC,Copper Cellar,Knoxville,TN,E,35.955967,-83.934225,Public,1124
LPG,Pitmon Oil & Gas,Davis,OK,E,34.5027778,-97.1250878,Public - Call ahead,1125
ELEC,Scripps Green Hospital,La Jolla,CA,E,32.89947,-117.243,Public,1126
LPG,Tractor Supply,Zachary,LA,E,30.649041999999998,-91.102947,Public - Call ahead,1127
CNG,Marathon Gas,Chicago,IL,E,41.868512,-87.64160419999997,Public - Credit card at all times,1128
ELEC,PETERSON BMW,Boise,ID,E,43.6180162,-116.2946166,Public,1129
LPG,U-Haul,Houston,TX,E,29.944093,-95.56544,Public,1130
E85,Thorntons #401,Lawrence,IN,E,39.828907,-86.04490190000001,Public,1131
ELEC,Alhambra Nissan,Alhambra,CA,E,34.098325,-118.11915,Private,1132
LPG,U-Haul,Oklahoma City,OK,E,35.5539562,-97.62939509999998,Public,1133
ELEC,900 N MICHIGAN,Chicago,IL,E,41.8994924,-87.6268915,Public,1134
ELEC,Central Parking,New York,NY,E,40.757807,-73.970226,Public,1135
E85,Kwik Trip #316,Hutchinson,MN,E,44.871014,-94.37621999999999,Public,1136
ELEC,CAMPUS,Overland Park,KS,E,38.9150415,-94.6614043,Public,1137
E85,Phillips - Apollo Mart,Bartonville,IL,E,40.6645549,-89.6801895,Public,1138
CNG,Get-Go Cranberry,Cranberry Township,PA,E,40.6863885,-80.0863608,Public,1139
E85,Speedway #7519,Portage,IN,E,41.5741862,-87.2212308,Public,1140
CNG,Chevron,Trussville,AL,E,33.656721000000005,-86.57488199999999,Public,1141
BD,City of Keene,Keene,NH,E,42.9247544,-72.26727109999999,Private - Government only,1142
ELEC,Sheehy Ford Lincoln,Midlothian,VA,E,37.505641,-77.59248000000001,Public,1143
ELEC,Crystal Nissan,Homosassa,FL,E,28.8486019,-82.5794494,Private,1144
E85,Martin's Super Markets,Nappanee,IN,E,41.444328000000006,-85.983305,Public - Credit card after hours,1145
ELEC,AMTRAK STATION,Madera,CA,E,37.02296810000001,-120.0753674,Public,1146
ELEC,350GREEN,Anaheim,CA,E,33.8405418,-117.8883133,Public,1147
LPG,Royal Palms Manufactured Home & RV Community,Austin,TX,E,30.21903,-97.68554499999999,Public,1148
ELEC,Southlake Nissan,Merrillville,IN,E,41.541764,-87.35296600000001,Public - Call ahead,1149
LPG,Avra Valley Hardware,Marana,AZ,E,32.379354,-111.31840600000001,Public,1150
ELEC,ORNL NTRC,Knoxville,TN,E,35.955,-84.15392,Private,1151
ELEC,Hines - US Airways Headquarters,Tempe,AZ,E,33.429384000000006,-111.94160900000001,Public,1152
ELEC,ESSEX,Santa Ana,CA,E,33.6982245,-117.86494779999998,Public,1153
ELEC,The Boeing Company,Portland,OR,E,45.543255,-122.46571399999999,Private,1154
ELEC,SALEM BMW,Salem,OR,E,44.9717507,-123.01955770000001,Public,1155
CNG,Alternative Vehicle Service Group - Lexington,Lexington,MA,E,42.446146999999996,-71.255103,Public - Credit card at all times,1156
ELEC,Whole Foods Market,Virginia Beach,VA,E,36.850515,-76.028014,Public,1157
ELEC,Dave Solon Nissan,Pueblo,CO,E,38.3115092,-104.6407314,Public - Call ahead,1158
LPG,Quick & Grice,Picayune,MS,E,30.510336,-89.683789,Public,1159
ELEC,Comfort Inn and Suites - Tesla,Columbus,TX,E,29.6901859,-96.53810899999999,Public,1160
ELEC,Rosen Nissan of Gurnee,Gurnee,IL,E,42.386763,-87.975497,Private,1161
ELEC,BEAU JO'S,Boulder,CO,E,39.9997644,-105.26056319999999,Public,1162
ELEC,Hanlees Hilltop Nissan,Richmond,CA,E,37.983498600000004,-122.32400870000001,Private,1163
E85,Valero,Parma,OH,E,41.414256,-81.710081,Public,1164
ELEC,Sinkiuse Square,Moses Lake,WA,E,47.1293765,-119.27913670000001,Public,1165
E85,McClure Oil #4,Marion,IN,E,40.534419,-85.6582853,Public,1166
ELEC,PUENTE HILLS VW,City of Industry,CA,E,33.9985556,-117.9338889,Public,1167
E85,Livermore Veterans Affairs Medical Center,Livermore,CA,E,37.6255203,-121.76311869999999,Private - Government only,1168
CNG,Clean Energy - Dallas Forth Worth Airport Rental Car Center,Irving,TX,E,32.85365,-97.035,Public - Credit card at all times,1169
ELEC,CARR PROPERTIES,Washington,DC,E,38.906867999999996,-77.0499191,Public,1170
ELEC,Dave Wright Nissan,Cedar Rapids,IA,E,42.030599,-91.665935,Public - Call ahead,1171
